{"city":"Bellevue","country_code":"USA","latitude":47.597965,"longitude":-122.151158,"name":"YouBeQB","category_code":"games_video","number_of_employees":8,"founded_year":2008}
{"city":"Norderstedt","country_code":"DEU","latitude":53.707739,"longitude":10.023246,"name":"alluc","category_code":"games_video","number_of_employees":7,"founded_year":2009}
{"city":"Santa Monica","country_code":"USA","latitude":34.031764,"longitude":-118.461884,"name":"WonderHowTo","category_code":"games_video","number_of_employees":12,"founded_year":2008}
{"city":"Louisville","country_code":"USA","latitude":38.257035,"longitude":-85.717393,"name":"First30Days","category_code":"web","number_of_employees":17,"founded_year":2008}
{"city":"Kirkland","country_code":"USA","latitude":47.704875,"longitude":-122.187925,"name":"PokerPlayersSocialNetwork","category_code":"web","number_of_employees":3,"founded_year":2008}
{"city":"Sydney","country_code":"AUS","latitude":-34.054416,"longitude":151.039775,"name":"thatsmymouse","category_code":"web","number_of_employees":3,"founded_year":2008}
{"city":"Doha","country_code":"QAT","latitude":25.2948,"longitude":51.5082,"name":"Triptuber","category_code":"games_video","number_of_employees":2,"founded_year":2008}
{"city":"San Francisco","country_code":"USA","latitude":37.790032,"longitude":-122.404488,"name":"Unknown Vector","category_code":"web","number_of_employees":7,"founded_year":2008}
{"city":"Roubaix","country_code":"FRA","latitude":50.694712,"longitude":3.165225,"name":"Poodz","category_code":"web","number_of_employees":5,"founded_year":2008}
{"city":"Millstone Township","country_code":"USA","latitude":40.219214,"longitude":-74.370313,"name":"Stumpedia","category_code":"web","number_of_employees":1,"founded_year":2008}
{"city":"San Francisco","country_code":"USA","latitude":37.7766587,"longitude":-122.395875,"name":"YouNoodle","category_code":"analytics","number_of_employees":18,"founded_year":2010}
{"city":"Edmonton, Alberta","country_code":"CAN","latitude":53.4665377,"longitude":-113.5291728,"name":"Newspond","category_code":"web","number_of_employees":2,"founded_year":2008}
{"city":"San Mateo","country_code":"USA","latitude":37.534317,"longitude":-122.294847,"name":"CineGoGo","category_code":"games_video","number_of_employees":2,"founded_year":2008}
{"city":"Chicago","country_code":"USA","latitude":41.886368,"longitude":-87.641739,"name":"Academic Capital Exchange","category_code":"ecommerce","number_of_employees":5,"founded_year":2008}
{"city":"New York","country_code":"USA","latitude":40.794985,"longitude":-73.96831,"name":"RareShare","category_code":"network_hosting","number_of_employees":2,"founded_year":2008}
{"city":"Kauniainen","country_code":"FIN","latitude":60.214102,"longitude":24.704663,"name":"Scred","category_code":"web","number_of_employees":3,"founded_year":2008}
{"city":"","country_code":"USA","latitude":42.037302,"longitude":-71.683502,"name":"ZapNat","category_code":"web","number_of_employees":2,"founded_year":2008}
{"city":"Derry","country_code":"USA","latitude":42.894414,"longitude":-71.316744,"name":"Workpost","category_code":"ecommerce","number_of_employees":5,"founded_year":2008}
{"city":"Scottsdale","country_code":"USA","latitude":33.503906,"longitude":-111.93315,"name":"nobosh","category_code":"web","number_of_employees":1,"founded_year":2008}
{"city":"","country_code":"CHN","latitude":35.86166,"longitude":104.195397,"name":"CityIN","category_code":"web","number_of_employees":11,"founded_year":2008}
{"city":"West Dundee","country_code":"USA","latitude":42.091078,"longitude":-88.288749,"name":"Crootpad","category_code":"games_video","number_of_employees":2,"founded_year":2009}
{"city":"Palo Alto","country_code":"USA","latitude":37.5645375,"longitude":-122.3254705,"name":"Skydeck","category_code":"mobile","number_of_employees":9,"founded_year":2012}
{"city":"Dubai","country_code":"ARE","latitude":25.271139,"longitude":55.307485,"name":"Darrb","category_code":"ecommerce","number_of_employees":4,"founded_year":2008}
{"city":"","country_code":"GBR","latitude":55.378051,"longitude":-3.435973,"name":"Wordki","category_code":"web","number_of_employees":2,"founded_year":2008}
{"city":"Austin","country_code":"USA","latitude":47.635749,"longitude":-122.324362,"name":"Notice Technologies","category_code":"analytics","number_of_employees":5,"founded_year":2008}
{"city":"Arlington","country_code":"USA","latitude":38.909812,"longitude":-77.12016,"name":"CreateDebate","category_code":"web","number_of_employees":3,"founded_year":2008}
{"city":"San Francisco","country_code":"USA","latitude":37.80391,"longitude":-122.4042586,"name":"ReadBurner","category_code":"web","number_of_employees":4,"founded_year":2008}
{"city":"Sunnyvale","country_code":"USA","latitude":37.3793718,"longitude":-122.0124404,"name":"Clipta","category_code":"games_video","number_of_employees":16,"founded_year":2008}
{"city":"Boston","country_code":"USA","latitude":42.322072,"longitude":-71.13129,"name":"InformedMD","category_code":"web","number_of_employees":2,"founded_year":2008}
{"city":"Santa Monica","country_code":"USA","latitude":34.01052,"longitude":-118.495981,"name":"Intent","category_code":"web","number_of_employees":6,"founded_year":2008}
{"city":"Bangalore","country_code":"IND","latitude":13.033353,"longitude":77.578768,"name":"BuyerRaja","category_code":"web","number_of_employees":20,"founded_year":2008}
{"city":"","country_code":"USA","latitude":37.269175,"longitude":-119.306607,"name":"Episodic","category_code":"games_video","number_of_employees":6,"founded_year":2008}
{"city":"New York City","country_code":"USA","latitude":40.755409,"longitude":-73.992706,"name":"Wakozi","category_code":"web","number_of_employees":5,"founded_year":2008}
{"city":"Oslo","country_code":"NOR","latitude":59.91382,"longitude":10.738741,"name":"Kalibera","category_code":"web","number_of_employees":2,"founded_year":2008}
{"city":"Palo Alto","country_code":"USA","latitude":37.446382,"longitude":-122.155678,"name":"Noovo","category_code":"web","number_of_employees":8,"founded_year":2008}
{"city":"San Francisco","country_code":"USA","latitude":31.169036,"longitude":-100.076888,"name":"Woopra","category_code":"software","number_of_employees":12,"founded_year":2008}
{"city":"Sherman Oaks","country_code":"USA","latitude":34.153588,"longitude":-118.422495,"name":"AudioMicro","category_code":"games_video","number_of_employees":10,"founded_year":2008}
{"city":"San Francisco","country_code":"USA","latitude":37.775196,"longitude":-122.419204,"name":"stickychicken","category_code":"games_video","number_of_employees":2,"founded_year":2008}
{"city":"Palo Alto","country_code":"USA","latitude":37.446662,"longitude":-122.164925,"name":"Weardrobe","category_code":"web","number_of_employees":2,"founded_year":2008}
{"city":"Toms River","country_code":"USA","latitude":39.949301,"longitude":-74.125176,"name":"GamerNook","category_code":"web","number_of_employees":3,"founded_year":2008}
{"city":"","country_code":"USA","latitude":37.269175,"longitude":-119.306607,"name":"Twubble","category_code":"web","number_of_employees":1,"founded_year":2008}
{"city":"Las Vegas","country_code":"USA","latitude":36.136552,"longitude":-115.154816,"name":"FinFolio","category_code":"software","number_of_employees":3,"founded_year":2008}
{"city":"San Diego","country_code":"USA","latitude":34.063441,"longitude":-118.36543,"name":"FragMob","category_code":"software","number_of_employees":12,"founded_year":2008}
{"city":"Ann Arbor","country_code":"USA","latitude":42.282255,"longitude":-83.731129,"name":"skoogO","category_code":"web","number_of_employees":1,"founded_year":2008}
{"city":"Rennes","country_code":"FRA","latitude":48.1128512,"longitude":-1.6629087,"name":"Jobingenieur","category_code":"web","number_of_employees":2,"founded_year":2008}
{"city":"San Francisco","country_code":"USA","latitude":37.79851,"longitude":-122.457454,"name":"Cutcaster","category_code":"web","number_of_employees":8,"founded_year":2008}
{"city":"London","country_code":"GBR","latitude":51.48916,"longitude":-0.217662,"name":"TutorByTxt","category_code":"mobile","number_of_employees":2,"founded_year":2008}
{"city":"San Francisco","country_code":"USA","latitude":37.756922,"longitude":-122.42087,"name":"Sutros","category_code":"games_video","number_of_employees":3,"founded_year":2008}
{"city":"Chicago","country_code":"USA","latitude":36.009825,"longitude":-78.922055,"name":"Beer Universe","category_code":"web","number_of_employees":3,"founded_year":2008}
{"city":"San Francisco","country_code":"USA","latitude":37.7896292,"longitude":-122.3998782,"name":"Macroaxis","category_code":"software","number_of_employees":8,"founded_year":2009}
{"city":"Durham","country_code":"USA","latitude":36.0073,"longitude":-78.9206,"name":"StrawPoll","category_code":"web","number_of_employees":3,"founded_year":2008}
{"city":"Rancho Cordova","country_code":"USA","latitude":38.589948,"longitude":-121.262316,"name":"Imagine Whatever","category_code":"web","number_of_employees":3,"founded_year":2008}
{"city":"Plant City","country_code":"USA","latitude":28.554855,"longitude":-82.391633,"name":"Sideline Report","category_code":"web","number_of_employees":5,"founded_year":2008}
{"city":"Auckland","country_code":"NZL","latitude":-36.879454,"longitude":174.72663,"name":"WotsCool","category_code":"web","number_of_employees":1,"founded_year":2008}
{"city":"Corby","country_code":"GBR","latitude":52.472029,"longitude":-0.698361,"name":"twit+","category_code":"games_video","number_of_employees":1,"founded_year":2008}
{"city":"Los Angeles","country_code":"USA","latitude":34.05285,"longitude":-118.264858,"name":"GeoGraffiti","category_code":"mobile","number_of_employees":5,"founded_year":2008}
{"city":"Tucson","country_code":"USA","latitude":32.240301,"longitude":-110.958319,"name":"Rekatu","category_code":"games_video","number_of_employees":5,"founded_year":2008}
{"city":"Mangalore","country_code":"IND","latitude":12.86936,"longitude":74.84256,"name":"Park Hill","category_code":"web","number_of_employees":10,"founded_year":2008}
{"city":"San Francisco","country_code":"USA","latitude":37.773727,"longitude":-122.401537,"name":"RemindBlast","category_code":"web","number_of_employees":5,"founded_year":2008}
{"city":"Akron","country_code":"USA","latitude":41.143544,"longitude":-81.473725,"name":"CogCog","category_code":"web","number_of_employees":2,"founded_year":2008}
{"city":"San Francisco","country_code":"USA","latitude":37.754332,"longitude":-122.416804,"name":"Supercool School","category_code":"web","number_of_employees":3,"founded_year":2009}
{"city":"Cherry Hill","country_code":"USA","latitude":39.928792,"longitude":-75.024335,"name":"uLiken","category_code":"web","number_of_employees":2,"founded_year":2008}
{"city":"Cologne","country_code":"DEU","latitude":50.9508924,"longitude":6.9280123,"name":"FRoSP","category_code":"web","number_of_employees":2,"founded_year":2008}
{"city":"New York","country_code":"USA","latitude":40.798345,"longitude":-73.963158,"name":"College Mogul","category_code":"web","number_of_employees":9,"founded_year":2008}
{"city":"San Fransisco","country_code":"USA","latitude":37.799596,"longitude":-122.4641,"name":"Chictopia","category_code":"network_hosting","number_of_employees":4,"founded_year":2008}
{"city":"Santa Clara","country_code":"USA","latitude":37.760524,"longitude":-122.387799,"name":"Fuzz","category_code":"games_video","number_of_employees":6,"founded_year":2011}
{"city":"San Francisco","country_code":"USA","latitude":37.791128,"longitude":-122.398126,"name":"Fonemesh","category_code":"mobile","number_of_employees":7,"founded_year":2008}
{"city":"Singapore","country_code":"SGP","latitude":1.289407,"longitude":103.849962,"name":"Fonemesh","category_code":"mobile","number_of_employees":7,"founded_year":2008}
{"city":"San Francisco","country_code":"USA","latitude":37.775196,"longitude":-122.419204,"name":"Stitcher","category_code":"mobile","number_of_employees":17,"founded_year":2008}
{"city":"","country_code":"PRT","latitude":39.399872,"longitude":-8.224454,"name":"Moosti","category_code":"web","number_of_employees":2,"founded_year":2008}
{"city":"Hyderabad","country_code":"IND","latitude":17.385044,"longitude":78.486671,"name":"SmashingFeeds","category_code":"web","number_of_employees":1,"founded_year":2008}
{"city":"Hamburg","country_code":"DEU","latitude":53.561185,"longitude":9.966419,"name":"Jupidi","category_code":"web","number_of_employees":3,"founded_year":2008}
{"city":"Hazleton","country_code":"USA","latitude":40.977855,"longitude":-76.029511,"name":"JumpFrog","category_code":"consulting","number_of_employees":12,"founded_year":2008}
{"city":"Burlington","country_code":"CAN","latitude":43.366842,"longitude":-79.824384,"name":"Mangaroo Media","category_code":"web","number_of_employees":3,"founded_year":2008}
{"city":"London","country_code":"GBR","latitude":51.517076,"longitude":-0.150417,"name":"Worship Journal","category_code":"web","number_of_employees":3,"founded_year":2008}
{"city":"Houston","country_code":"USA","latitude":29.735082,"longitude":-95.390758,"name":"Mouth Watering Media","category_code":"web","number_of_employees":10,"founded_year":2008}
{"city":"Santa Monica","country_code":"USA","latitude":34.032461,"longitude":-118.481828,"name":"Pacific New Media","category_code":"ecommerce","number_of_employees":2,"founded_year":2008}
{"city":"Raleigh","country_code":"USA","latitude":35.779748,"longitude":-78.643414,"name":"Blazing Bid","category_code":"web","number_of_employees":1,"founded_year":2008}
{"city":"","country_code":"USA","latitude":42.037302,"longitude":-71.683502,"name":"REblogg","category_code":"ecommerce","number_of_employees":1,"founded_year":2008}
{"city":"Whistler","country_code":"USA","latitude":50.123306,"longitude":-122.96391,"name":"hearwhere","category_code":"games_video","number_of_employees":2,"founded_year":2008}
{"city":"South Jordan","country_code":"USA","latitude":40.57352,"longitude":-111.959164,"name":"CarArt","category_code":"ecommerce","number_of_employees":3,"founded_year":2008}
{"city":"London","country_code":"GBR","latitude":51.500152,"longitude":-0.126236,"name":"Phreadz","category_code":"web","number_of_employees":1,"founded_year":2008}
{"city":"Qu\u00c3\u00a9bec","country_code":"CAN","latitude":46.898577,"longitude":-71.20097,"name":"Ovologic","category_code":"software","number_of_employees":1,"founded_year":2008}
{"city":"Kent","country_code":"GBR","latitude":51.125693,"longitude":0.257568,"name":"Socruise","category_code":"web","number_of_employees":5,"founded_year":2008}
{"city":"Madison Heights","country_code":"USA","latitude":42.51214,"longitude":-83.14483,"name":"wagehub","category_code":"web","number_of_employees":1,"founded_year":2008}
{"city":"San Francisco","country_code":"USA","latitude":37.78597,"longitude":-122.437262,"name":"SFentrepreneur","category_code":"web","number_of_employees":2,"founded_year":2008}
{"city":"New York","country_code":"USA","latitude":40.757929,"longitude":-73.985506,"name":"Pinch Media","category_code":"software","number_of_employees":6,"founded_year":2008}
{"city":"Mississauga","country_code":"CAN","latitude":43.657979,"longitude":-79.603622,"name":"Plurk","category_code":"web","number_of_employees":7,"founded_year":2008}
{"city":"Bangalore","country_code":"IND","latitude":12.975531,"longitude":77.653739,"name":"Manam Infotech","category_code":"software","number_of_employees":20,"founded_year":2008}
{"city":"Austin","country_code":"USA","latitude":30.275261,"longitude":-97.763987,"name":"Ucareer","category_code":"web","number_of_employees":6,"founded_year":2008}
{"city":"Chicago","country_code":"USA","latitude":42.010632,"longitude":-87.66831,"name":"DormTrader","category_code":"web","number_of_employees":1,"founded_year":2008}
{"city":"Scarborough","country_code":"GBR","latitude":54.211373,"longitude":-0.469586,"name":"MESOMOCO","category_code":"web","number_of_employees":4,"founded_year":2008}
{"city":"London","country_code":"GBR","latitude":51.500152,"longitude":-0.126236,"name":"Sazell","category_code":"web","number_of_employees":2,"founded_year":2008}
{"city":"","country_code":"USA","latitude":37.09024,"longitude":-95.712891,"name":"Wazzala","category_code":"web","number_of_employees":1,"founded_year":2008}
{"city":"Bangalore","country_code":"IND","latitude":49.0092558,"longitude":8.4102781,"name":"Orbster","category_code":"mobile","number_of_employees":8,"founded_year":2008}
{"city":"Bellevue","country_code":"USA","latitude":47.584975,"longitude":-122.132013,"name":"NitroDesk","category_code":"software","number_of_employees":8,"founded_year":2008}
{"city":"New York","country_code":"USA","latitude":40.749277,"longitude":-73.978733,"name":"Plentitube","category_code":"ecommerce","number_of_employees":5,"founded_year":2008}
{"city":"New York","country_code":"USA","latitude":40.714521,"longitude":-74.007072,"name":"Strateer","category_code":"web","number_of_employees":2,"founded_year":2008}
{"city":"Van Nuys","country_code":"USA","latitude":40.650291,"longitude":-74.294395,"name":"CollegeConvo","category_code":"web","number_of_employees":2,"founded_year":2010}
{"city":"Las Vegas","country_code":"USA","latitude":36.233048,"longitude":-115.246776,"name":"iPlaceBook","category_code":"web","number_of_employees":1,"founded_year":2008}
{"city":"Citrus Heights","country_code":"USA","latitude":38.692609,"longitude":-121.267626,"name":"Restyleme","category_code":"web","number_of_employees":2,"founded_year":2008}
{"city":"Venice","country_code":"USA","latitude":33.995974,"longitude":-118.456709,"name":"PerfectBusiness","category_code":"web","number_of_employees":10,"founded_year":2008}
{"city":"Sao Paulo","country_code":"BRA","latitude":-23.548943,"longitude":-46.638818,"name":"Estilook","category_code":"web","number_of_employees":3,"founded_year":2008}
{"city":"Palo Alto","country_code":"USA","latitude":37.444332,"longitude":-122.161018,"name":"Tapulous","category_code":"mobile","number_of_employees":15,"founded_year":2008}
{"city":"Moreno Valley","country_code":"USA","latitude":33.921969,"longitude":-117.249376,"name":"Faneebo","category_code":"games_video","number_of_employees":1,"founded_year":2008}
{"city":"Boulder","country_code":"USA","latitude":40.01831,"longitude":-105.278025,"name":"Passitto","category_code":"web","number_of_employees":3,"founded_year":2008}
{"city":"West Palm Beach","country_code":"USA","latitude":26.708395,"longitude":-80.229012,"name":"Ziipa","category_code":"ecommerce","number_of_employees":2,"founded_year":2008}
{"city":"Bethesda","country_code":"USA","latitude":38.989124,"longitude":-77.026676,"name":"Carfeine","category_code":"software","number_of_employees":5,"founded_year":2012}
{"city":"Palo Alto","country_code":"USA","latitude":37.4440981,"longitude":-122.1612868,"name":"Ziippi","category_code":"web","number_of_employees":6,"founded_year":2011}
{"city":"West Hollywood","country_code":"USA","latitude":34.091073,"longitude":-118.367701,"name":"Pink Banana Media","category_code":"consulting","number_of_employees":2,"founded_year":2008}
{"city":"Santa Monica","country_code":"USA","latitude":53.544711,"longitude":-113.515769,"name":"Titan Gaming","category_code":"games_video","number_of_employees":18,"founded_year":2010}
{"city":"Scottsdale","country_code":"USA","latitude":33.533027,"longitude":-111.923849,"name":"gAuto","category_code":"ecommerce","number_of_employees":3,"founded_year":2008}
{"city":"Alameda","country_code":"USA","latitude":37.78424,"longitude":-122.274771,"name":"BitRock","category_code":"software","number_of_employees":20,"founded_year":2009}
{"city":"Cesson S\u00c3\u00a9vign\u00c3\u00a9","country_code":"FRA","latitude":48.10583,"longitude":-1.611882,"name":"Xilinus","category_code":"web","number_of_employees":2,"founded_year":2008}
{"city":"Phoenix","country_code":"USA","latitude":33.64873,"longitude":-112.051346,"name":"Bragosphere","category_code":"games_video","number_of_employees":3,"founded_year":2008}
{"city":"Richmond Hill","country_code":"CAN","latitude":43.874167,"longitude":-79.4242645,"name":"oybuzz","category_code":"consulting","number_of_employees":5,"founded_year":2008}
{"city":"Lima","country_code":"PER","latitude":-12.0805011,"longitude":-77.0551909,"name":"CreActivity Focus","category_code":"web","number_of_employees":10,"founded_year":2008}
{"city":"San Sebasti\u00e1n","country_code":"ESP","latitude":43.3135579,"longitude":-1.9820361,"name":"Forvo","category_code":"web","number_of_employees":4,"founded_year":2008}
{"city":"Austin","country_code":"USA","latitude":30.291391,"longitude":-97.710481,"name":"Uprizer Labs","category_code":"software","number_of_employees":5,"founded_year":2008}
{"city":"Seattle","country_code":"USA","latitude":44.859587,"longitude":-93.226503,"name":"Gimigo","category_code":"analytics","number_of_employees":4,"founded_year":2013}
{"city":"San Francisco","country_code":"USA","latitude":37.775196,"longitude":-122.419204,"name":"Posterous","category_code":"web","number_of_employees":9,"founded_year":2008}
{"city":"Boynton Beach","country_code":"USA","latitude":26.528215,"longitude":-80.082474,"name":"SNASM","category_code":"web","number_of_employees":2,"founded_year":2008}
{"city":"Seattle","country_code":"USA","latitude":40.179731,"longitude":-105.20545,"name":"Jetrecord","category_code":"web","number_of_employees":1,"founded_year":2008}
{"city":"San Francisco","country_code":"USA","latitude":37.758352,"longitude":-122.398379,"name":"Open Places","category_code":"web","number_of_employees":3,"founded_year":2008}
{"city":"London","country_code":"GBR","latitude":51.5001524,"longitude":-0.1262362,"name":"TweetDeck","category_code":"software","number_of_employees":5,"founded_year":2008}
{"city":"Omaha","country_code":"USA","latitude":30.268735,"longitude":-97.745209,"name":"Ninth Yard","category_code":"software","number_of_employees":1,"founded_year":2008}
{"city":"Atlanta","country_code":"USA","latitude":33.754487,"longitude":-84.389663,"name":"Regator","category_code":"web","number_of_employees":4,"founded_year":2008}
{"city":"Thessaloniki","country_code":"GRC","latitude":40.6072691,"longitude":22.9600935,"name":"Wi-Not","category_code":"mobile","number_of_employees":5,"founded_year":2008}
{"city":"Plano","country_code":"USA","latitude":33.079033,"longitude":-96.776711,"name":"BackVerse","category_code":"ecommerce","number_of_employees":1,"founded_year":2008}
{"city":"Santa Monica","country_code":"USA","latitude":34.015464,"longitude":-118.493105,"name":"Prolebrity","category_code":"web","number_of_employees":8,"founded_year":2008}
{"city":"Saint John","country_code":"CAN","latitude":45.298204,"longitude":-66.09705,"name":"The Drum Fill","category_code":"web","number_of_employees":3,"founded_year":2008}
{"city":"Brooklyn","country_code":"USA","latitude":40.727434,"longitude":-73.9447994,"name":"GEN247","category_code":"games_video","number_of_employees":12,"founded_year":2008}
{"city":"San Diego","country_code":"USA","latitude":32.867073,"longitude":-117.211077,"name":"Google And Blog","category_code":"mobile","number_of_employees":1,"founded_year":2008}
{"city":"London","country_code":"GBR","latitude":51.498067,"longitude":-0.175393,"name":"Kappa Prime","category_code":"web","number_of_employees":2,"founded_year":2008}
{"city":"San Francisco","country_code":"USA","latitude":37.796164,"longitude":-122.420903,"name":"EcoFlip","category_code":"web","number_of_employees":5,"founded_year":2008}
{"city":"New York","country_code":"USA","latitude":40.724289,"longitude":-73.980587,"name":"GigMaven","category_code":"games_video","number_of_employees":8,"founded_year":2008}
{"city":"Raleigh","country_code":"USA","latitude":35.779748,"longitude":-78.643414,"name":"Bars For Us","category_code":"games_video","number_of_employees":4,"founded_year":2008}
{"city":"San Francisco","country_code":"USA","latitude":37.780134,"longitude":-122.396744,"name":"Scavenja","category_code":"games_video","number_of_employees":8,"founded_year":2008}
{"city":"Wellington","country_code":"NZL","latitude":-41.296454,"longitude":174.774682,"name":"Tripy Travel","category_code":"web","number_of_employees":10,"founded_year":2008}
{"city":"Meadowbank NSW","country_code":"AUS","latitude":-33.817773,"longitude":151.091193,"name":"SMS Poll","category_code":"mobile","number_of_employees":4,"founded_year":2008}
{"city":"Providence","country_code":"USA","latitude":41.83,"longitude":-71.41,"name":"World Wide Talent Search","category_code":"games_video","number_of_employees":1,"founded_year":2008}
{"city":"San Carlos","country_code":"USA","latitude":37.494996,"longitude":-122.267654,"name":"Rock Entertainment","category_code":"web","number_of_employees":3,"founded_year":2008}
{"city":"Flower Mound","country_code":"USA","latitude":33.020039,"longitude":-97.069403,"name":"MedicareSaver","category_code":"web","number_of_employees":6,"founded_year":2008}
{"city":"Carmel","country_code":"USA","latitude":39.973067,"longitude":-86.198436,"name":"Blinkweb","category_code":"web","number_of_employees":3,"founded_year":2008}
{"city":"Nashville","country_code":"USA","latitude":36.124497,"longitude":-86.846342,"name":"InstantAmber","category_code":"web","number_of_employees":5,"founded_year":2008}
{"city":"London","country_code":"GBR","latitude":51.51781,"longitude":-0.184358,"name":"Dynamic50","category_code":"consulting","number_of_employees":10,"founded_year":2008}
{"city":"Berlin","country_code":"DEU","latitude":52.521627,"longitude":13.40462,"name":"15Talents","category_code":"consulting","number_of_employees":12,"founded_year":2008}
{"city":"Utrecht","country_code":"NLD","latitude":52.091381,"longitude":5.148893,"name":"Jibes","category_code":"web","number_of_employees":15,"founded_year":2008}
{"city":"","country_code":"IND","latitude":19.017656,"longitude":72.856178,"name":"IdeaFry","category_code":"network_hosting","number_of_employees":5,"founded_year":2008}
{"city":"Dhaka","country_code":"BGD","latitude":23.797333,"longitude":90.401432,"name":"IBTgames","category_code":"games_video","number_of_employees":11,"founded_year":2008}
{"city":"Worcester","country_code":"USA","latitude":42.23988,"longitude":-71.839344,"name":"IBTgames","category_code":"games_video","number_of_employees":11,"founded_year":2008}
{"city":"Dorking, Surrey","country_code":"GBR","latitude":51.2798857,"longitude":-0.4274181,"name":"WorkoutBOX","category_code":"web","number_of_employees":5,"founded_year":2008}
{"city":"Agoura Hills","country_code":"USA","latitude":34.146149,"longitude":-118.761265,"name":"Qovax","category_code":"software","number_of_employees":2,"founded_year":2008}
{"city":"Houston","country_code":"USA","latitude":29.983076,"longitude":-95.5627227,"name":"Handcrafted","category_code":"consulting","number_of_employees":5,"founded_year":2008}
{"city":"N. Attleboro","country_code":"USA","latitude":41.957177,"longitude":-71.3607,"name":"Relativity","category_code":"consulting","number_of_employees":4,"founded_year":2008}
{"city":"Vancouver","country_code":"CAN","latitude":49.242824,"longitude":-123.060221,"name":"Ratemyideas","category_code":"web","number_of_employees":2,"founded_year":2008}
{"city":"Kansas City","country_code":"USA","latitude":39.104837,"longitude":-94.594928,"name":"Tweenky","category_code":"web","number_of_employees":1,"founded_year":2008}
{"city":"Belmont","country_code":"USA","latitude":37.513811,"longitude":-122.296337,"name":"ResearchScorecard","category_code":"network_hosting","number_of_employees":1,"founded_year":2008}
{"city":"Philadelphia","country_code":"USA","latitude":39.95644,"longitude":-75.196171,"name":"Anthillz","category_code":"web","number_of_employees":6,"founded_year":2008}
{"city":"London","country_code":"GBR","latitude":51.5399105,"longitude":-0.2859795,"name":"Mixcloud","category_code":"games_video","number_of_employees":8,"founded_year":2008}
{"city":"Metz","country_code":"FRA","latitude":49.1004,"longitude":6.182658,"name":"Click2Map","category_code":"web","number_of_employees":4,"founded_year":2008}
{"city":"San Francisco","country_code":"USA","latitude":37.775196,"longitude":-122.419204,"name":"Zorap","category_code":"web","number_of_employees":2,"founded_year":2008}
{"city":"Falmouth","country_code":"USA","latitude":43.6910137,"longitude":-70.2694636,"name":"Zorap","category_code":"web","number_of_employees":2,"founded_year":2008}
{"city":"Palo Alto","country_code":"USA","latitude":37.4459832,"longitude":-122.1490582,"name":"RankBoom","category_code":"web","number_of_employees":2,"founded_year":2008}
{"city":"Durham","country_code":"GBR","latitude":54.703145,"longitude":-1.574948,"name":"CompareAway","category_code":"web","number_of_employees":5,"founded_year":2009}
{"city":"Berlin","country_code":"DEU","latitude":52.510284,"longitude":13.465981,"name":"want2do","category_code":"web","number_of_employees":4,"founded_year":2008}
{"city":"Atlanta","country_code":"USA","latitude":33.877286,"longitude":-84.334042,"name":"LocalPrice","category_code":"web","number_of_employees":3,"founded_year":2008}
{"city":"Concord","country_code":"USA","latitude":42.45494,"longitude":-71.356845,"name":"SchoolPulse","category_code":"web","number_of_employees":6,"founded_year":2008}
{"city":"Chicago","country_code":"USA","latitude":41.886048,"longitude":-87.625743,"name":"Shop Like Anna","category_code":"ecommerce","number_of_employees":5,"founded_year":2008}
{"city":"Mercer Island","country_code":"USA","latitude":47.565229,"longitude":-122.233149,"name":"TuneyFish","category_code":"consulting","number_of_employees":2,"founded_year":2008}
{"city":"London","country_code":"GBR","latitude":51.549167,"longitude":-0.24233,"name":"retaggr","category_code":"web","number_of_employees":4,"founded_year":2008}
{"city":"San Francisco","country_code":"USA","latitude":37.7749295,"longitude":-122.4194155,"name":"Same Page Capital","category_code":"consulting","number_of_employees":1,"founded_year":2008}
{"city":"Prenton","country_code":"GBR","latitude":53.386432,"longitude":-3.036415,"name":"Treasuremytext","category_code":"mobile","number_of_employees":2,"founded_year":2008}
{"city":"New York","country_code":"USA","latitude":40.739867,"longitude":-73.990024,"name":"YellowSpaces","category_code":"web","number_of_employees":1,"founded_year":2008}
{"city":"Santa Barbara","country_code":"USA","latitude":34.4335255,"longitude":-119.8084281,"name":"RevJobs","category_code":"web","number_of_employees":1,"founded_year":2008}
{"city":"Los Angeles","country_code":"USA","latitude":34.070436,"longitude":-118.350486,"name":"Tubefilter","category_code":"games_video","number_of_employees":12,"founded_year":2008}
{"city":"Lake Arrowhead","country_code":"USA","latitude":34.265641,"longitude":-117.11359,"name":"Spellspace","category_code":"web","number_of_employees":2,"founded_year":2008}
{"city":"Toronto","country_code":"CAN","latitude":43.769574,"longitude":-79.411513,"name":"Classtell","category_code":"web","number_of_employees":1,"founded_year":2008}
{"city":"Paris","country_code":"FRA","latitude":48.8785721,"longitude":2.3249952,"name":"Orinea","category_code":"web","number_of_employees":5,"founded_year":2008}
{"city":"Casablanca, Maroc","country_code":"FRA","latitude":33.5922469,"longitude":-7.6332257,"name":"Orinea","category_code":"web","number_of_employees":5,"founded_year":2008}
{"city":"Worcester","country_code":"GBR","latitude":52.232349,"longitude":-2.26681,"name":"TheWebService","category_code":"web","number_of_employees":12,"founded_year":2008}
{"city":"Therwil","country_code":"CHE","latitude":47.377663,"longitude":8.527005,"name":"Millform","category_code":"mobile","number_of_employees":10,"founded_year":2008}
{"city":"Amsterdam","country_code":"NLD","latitude":52.3644743,"longitude":4.8926529,"name":"TwitterCounter","category_code":"web","number_of_employees":1,"founded_year":2008}
{"city":"Palo Alto","country_code":"USA","latitude":37.437328,"longitude":-122.159928,"name":"Snipd","category_code":"games_video","number_of_employees":2,"founded_year":2008}
{"city":"Austin","country_code":"USA","latitude":30.268735,"longitude":-97.745209,"name":"Snipd","category_code":"games_video","number_of_employees":2,"founded_year":2008}
{"city":"Milan","country_code":"ITA","latitude":45.507014,"longitude":9.2298577,"name":"Digital ReveNew","category_code":"consulting","number_of_employees":20,"founded_year":2008}
{"city":"Rome","country_code":"ITA","latitude":41.8975813,"longitude":12.4941336,"name":"Digital ReveNew","category_code":"consulting","number_of_employees":20,"founded_year":2008}
{"city":"Sunnyvale","country_code":"USA","latitude":37.424614,"longitude":-122.145153,"name":"vufind","category_code":"mobile","number_of_employees":7,"founded_year":2010}
{"city":"Newbury","country_code":"GBR","latitude":51.417565,"longitude":-1.313068,"name":"Groopi","category_code":"games_video","number_of_employees":1,"founded_year":2008}
{"city":"Toronto","country_code":"CAN","latitude":43.632844,"longitude":-79.554784,"name":"Strider SEO","category_code":"consulting","number_of_employees":3,"founded_year":2008}
{"city":"Woodbridge","country_code":"CAN","latitude":43.768232,"longitude":-79.611182,"name":"Strider SEO","category_code":"consulting","number_of_employees":3,"founded_year":2008}
{"city":"San Francisco","country_code":"USA","latitude":41.864917,"longitude":-87.625271,"name":"Poll Everywhere","category_code":"mobile","number_of_employees":20,"founded_year":2008}
{"city":"Washington","country_code":"USA","latitude":38.897976,"longitude":-77.028561,"name":"YadaHome","category_code":"network_hosting","number_of_employees":1,"founded_year":2008}
{"city":"Corby","country_code":"GBR","latitude":52.472029,"longitude":-0.698361,"name":"twit+","category_code":"games_video","number_of_employees":1,"founded_year":2008}
{"city":"Princeville","country_code":"USA","latitude":22.226745,"longitude":-159.480262,"name":"Plum Amazing","category_code":"software","number_of_employees":4,"founded_year":2008}
{"city":"Redmond","country_code":"USA","latitude":47.67356,"longitude":-122.133621,"name":"eTalkup","category_code":"web","number_of_employees":5,"founded_year":2008}
{"city":"Boulder","country_code":"USA","latitude":40.018145,"longitude":-105.278109,"name":"Occipital","category_code":"software","number_of_employees":9,"founded_year":2008}
{"city":"San Marcos","country_code":"USA","latitude":29.876617,"longitude":-97.940336,"name":"App Cubby","category_code":"mobile","number_of_employees":2,"founded_year":2008}
{"city":"Vienna","country_code":"AUT","latitude":48.182591,"longitude":16.357786,"name":"Cityflats4you","category_code":"web","number_of_employees":2,"founded_year":2008}
{"city":"San Francisco","country_code":"USA","latitude":37.782101,"longitude":-122.389519,"name":"Carticipate","category_code":"mobile","number_of_employees":3,"founded_year":2008}
{"city":"New Delhi","country_code":"IND","latitude":28.554777,"longitude":77.210726,"name":"Diditz","category_code":"network_hosting","number_of_employees":2,"founded_year":2008}
{"city":"Amsterdam","country_code":"NLD","latitude":52.352201,"longitude":4.890314,"name":"NewMarCom","category_code":"consulting","number_of_employees":1,"founded_year":2008}
{"city":"Chandler","country_code":"USA","latitude":33.3176,"longitude":-111.8566,"name":"cosinity","category_code":"web","number_of_employees":1,"founded_year":2008}
{"city":"Sausalito","country_code":"USA","latitude":37.864435,"longitude":-122.490586,"name":"Adgregate Markets","category_code":"ecommerce","number_of_employees":20,"founded_year":2008}
{"city":"Sunnyvale","country_code":"USA","latitude":37.384239,"longitude":-122.012475,"name":"iCharts","category_code":"analytics","number_of_employees":16,"founded_year":2008}
{"city":"San Diego","country_code":"USA","latitude":32.718834,"longitude":-117.163841,"name":"Galaxy","category_code":"software","number_of_employees":2,"founded_year":2008}
{"city":"San Francisco","country_code":"USA","latitude":37.80204,"longitude":-122.438231,"name":"plaYce","category_code":"games_video","number_of_employees":7,"founded_year":2008}
{"city":"St Charles","country_code":"USA","latitude":41.931912,"longitude":-88.294854,"name":"IdenIve","category_code":"web","number_of_employees":1,"founded_year":2008}
{"city":"New York","country_code":"USA","latitude":40.775309,"longitude":-73.983656,"name":"Producteev","category_code":"software","number_of_employees":10,"founded_year":2008}
{"city":"Palo Alto","country_code":"USA","latitude":37.448598,"longitude":-122.158497,"name":"Bojam","category_code":"games_video","number_of_employees":5,"founded_year":2008}
{"city":"San Francisco","country_code":"USA","latitude":37.794124,"longitude":-122.403223,"name":"Twonq","category_code":"web","number_of_employees":3,"founded_year":2008}
{"city":"Delft","country_code":"NLD","latitude":51.9973515,"longitude":4.3848574,"name":"Twonq","category_code":"web","number_of_employees":3,"founded_year":2008}
{"city":"Philadelphia","country_code":"USA","latitude":39.951639,"longitude":-75.163808,"name":"The Impartial Observer","category_code":"web","number_of_employees":4,"founded_year":2008}
{"city":"Brookline","country_code":"USA","latitude":42.342152,"longitude":-71.121625,"name":"PicMe","category_code":"software","number_of_employees":3,"founded_year":2008}
{"city":"Bangalore","country_code":"IND","latitude":12.971606,"longitude":77.594376,"name":"eLagaan","category_code":"web","number_of_employees":20,"founded_year":2008}
{"city":"Fremont","country_code":"USA","latitude":37.3110283,"longitude":-121.9501439,"name":"eLagaan","category_code":"web","number_of_employees":20,"founded_year":2008}
{"city":"","country_code":"USA","latitude":40.756054,"longitude":-73.986951,"name":"Papervitamins","category_code":"web","number_of_employees":2,"founded_year":2008}
{"city":"Yokohama","country_code":"JPN","latitude":35.4437078,"longitude":139.6380256,"name":"Papervitamins","category_code":"web","number_of_employees":2,"founded_year":2008}
{"city":"Poway","country_code":"USA","latitude":32.981201,"longitude":-117.062239,"name":"CropMom","category_code":"software","number_of_employees":3,"founded_year":2008}
{"city":"Los Gatos","country_code":"USA","latitude":37.228232,"longitude":-121.987122,"name":"911ice","category_code":"web","number_of_employees":4,"founded_year":2008}
{"city":"San Francisco","country_code":"USA","latitude":37.7753,"longitude":-122.4186,"name":"TopNotchThemes","category_code":"ecommerce","number_of_employees":5,"founded_year":2008}
{"city":"","country_code":"USA","latitude":40.822087,"longitude":-73.950677,"name":"Klatcher","category_code":"web","number_of_employees":5,"founded_year":2008}
{"city":"","country_code":"USA","latitude":44.528743,"longitude":-88.10135,"name":"Pepmall","category_code":"ecommerce","number_of_employees":2,"founded_year":2008}
{"city":"Charlotte","country_code":"USA","latitude":35.208745,"longitude":-80.83722,"name":"splaht!","category_code":"web","number_of_employees":2,"founded_year":2008}
{"city":"Madrid","country_code":"ESP","latitude":40.412323,"longitude":-3.703248,"name":"Daily Flat Rental","category_code":"ecommerce","number_of_employees":2,"founded_year":2008}
{"city":"Cupertino","country_code":"USA","latitude":37.323234,"longitude":-122.055177,"name":"Spare Change Payments","category_code":"web","number_of_employees":8,"founded_year":2008}
{"city":"Holly Springs","country_code":"USA","latitude":35.633134,"longitude":-78.862414,"name":"BrainyAtom","category_code":"ecommerce","number_of_employees":2,"founded_year":2008}
{"city":"Singapore","country_code":"SGP","latitude":1.308655,"longitude":103.861929,"name":"Jorbb","category_code":"web","number_of_employees":3,"founded_year":2008}
{"city":"Treviso","country_code":"ITA","latitude":45.657409,"longitude":12.22861,"name":"Dooit","category_code":"software","number_of_employees":10,"founded_year":2008}
{"city":"Atlanta","country_code":"USA","latitude":33.834764,"longitude":-84.378116,"name":"SimpleLeap Software","category_code":"software","number_of_employees":2,"founded_year":2008}
{"city":"Berkeley","country_code":"USA","latitude":37.8650275,"longitude":-122.2987371,"name":"Shastic","category_code":"software","number_of_employees":4,"founded_year":2008}
{"city":"Austin","country_code":"USA","latitude":30.443493,"longitude":-97.77512,"name":"SnapPages","category_code":"web","number_of_employees":4,"founded_year":2008}
{"city":"Champaign","country_code":"USA","latitude":40.090392,"longitude":-88.239237,"name":"TickerGram","category_code":"web","number_of_employees":2,"founded_year":2008}
{"city":"Berlin","country_code":"DEU","latitude":52.583651,"longitude":13.285504,"name":"UpdateStar","category_code":"software","number_of_employees":5,"founded_year":2008}
{"city":"Sydney","country_code":"AUS","latitude":-33.867139,"longitude":151.207114,"name":"uTag","category_code":"web","number_of_employees":5,"founded_year":2008}
{"city":"San Francisco","country_code":"USA","latitude":37.764395,"longitude":-122.401024,"name":"Pixelpipe","category_code":"mobile","number_of_employees":10,"founded_year":2008}
{"city":"New York","country_code":"USA","latitude":40.741441,"longitude":-73.999675,"name":"Samepoint","category_code":"web","number_of_employees":5,"founded_year":2008}
{"city":"San Francisco","country_code":"USA","latitude":37.78691,"longitude":-122.404403,"name":"InnerRewards","category_code":"ecommerce","number_of_employees":9,"founded_year":2008}
{"city":"New York","country_code":"USA","latitude":40.741594,"longitude":-73.990468,"name":"InnerRewards","category_code":"ecommerce","number_of_employees":9,"founded_year":2008}
{"city":"Wincanton","country_code":"GBR","latitude":51.386522,"longitude":0.544338,"name":"Webtogs","category_code":"ecommerce","number_of_employees":8,"founded_year":2008}
{"city":"Prenton","country_code":"GBR","latitude":53.386432,"longitude":-3.036415,"name":"Treasuremytext","category_code":"mobile","number_of_employees":2,"founded_year":2008}
{"city":"New York","country_code":"USA","latitude":40.739867,"longitude":-73.990024,"name":"YellowSpaces","category_code":"web","number_of_employees":1,"founded_year":2008}
{"city":"Santa Barbara","country_code":"USA","latitude":34.4335255,"longitude":-119.8084281,"name":"RevJobs","category_code":"web","number_of_employees":1,"founded_year":2008}
{"city":"Los Angeles","country_code":"USA","latitude":34.070436,"longitude":-118.350486,"name":"Tubefilter","category_code":"games_video","number_of_employees":12,"founded_year":2008}
{"city":"Lake Arrowhead","country_code":"USA","latitude":34.265641,"longitude":-117.11359,"name":"Spellspace","category_code":"web","number_of_employees":2,"founded_year":2008}
{"city":"Toronto","country_code":"CAN","latitude":43.769574,"longitude":-79.411513,"name":"Classtell","category_code":"web","number_of_employees":1,"founded_year":2008}
{"city":"Paris","country_code":"FRA","latitude":48.8785721,"longitude":2.3249952,"name":"Orinea","category_code":"web","number_of_employees":5,"founded_year":2008}
{"city":"Casablanca, Maroc","country_code":"FRA","latitude":33.5922469,"longitude":-7.6332257,"name":"Orinea","category_code":"web","number_of_employees":5,"founded_year":2008}
{"city":"Worcester","country_code":"GBR","latitude":52.232349,"longitude":-2.26681,"name":"TheWebService","category_code":"web","number_of_employees":12,"founded_year":2008}
{"city":"Therwil","country_code":"CHE","latitude":47.377663,"longitude":8.527005,"name":"Millform","category_code":"mobile","number_of_employees":10,"founded_year":2008}
{"city":"Amsterdam","country_code":"NLD","latitude":52.3644743,"longitude":4.8926529,"name":"TwitterCounter","category_code":"web","number_of_employees":1,"founded_year":2008}
{"city":"Palo Alto","country_code":"USA","latitude":37.437328,"longitude":-122.159928,"name":"Snipd","category_code":"games_video","number_of_employees":2,"founded_year":2008}
{"city":"Austin","country_code":"USA","latitude":30.268735,"longitude":-97.745209,"name":"Snipd","category_code":"games_video","number_of_employees":2,"founded_year":2008}
{"city":"Milan","country_code":"ITA","latitude":45.507014,"longitude":9.2298577,"name":"Digital ReveNew","category_code":"consulting","number_of_employees":20,"founded_year":2008}
{"city":"Rome","country_code":"ITA","latitude":41.8975813,"longitude":12.4941336,"name":"Digital ReveNew","category_code":"consulting","number_of_employees":20,"founded_year":2008}
{"city":"Sunnyvale","country_code":"USA","latitude":37.424614,"longitude":-122.145153,"name":"vufind","category_code":"mobile","number_of_employees":7,"founded_year":2010}
{"city":"Newbury","country_code":"GBR","latitude":51.417565,"longitude":-1.313068,"name":"Groopi","category_code":"games_video","number_of_employees":1,"founded_year":2008}
{"city":"Toronto","country_code":"CAN","latitude":43.632844,"longitude":-79.554784,"name":"Strider SEO","category_code":"consulting","number_of_employees":3,"founded_year":2008}
{"city":"Woodbridge","country_code":"CAN","latitude":43.768232,"longitude":-79.611182,"name":"Strider SEO","category_code":"consulting","number_of_employees":3,"founded_year":2008}
{"city":"San Francisco","country_code":"USA","latitude":41.864917,"longitude":-87.625271,"name":"Poll Everywhere","category_code":"mobile","number_of_employees":20,"founded_year":2008}
{"city":"Washington","country_code":"USA","latitude":38.897976,"longitude":-77.028561,"name":"YadaHome","category_code":"network_hosting","number_of_employees":1,"founded_year":2008}
{"city":"Corby","country_code":"GBR","latitude":52.472029,"longitude":-0.698361,"name":"twit+","category_code":"games_video","number_of_employees":1,"founded_year":2008}
{"city":"Princeville","country_code":"USA","latitude":22.226745,"longitude":-159.480262,"name":"Plum Amazing","category_code":"software","number_of_employees":4,"founded_year":2008}
{"city":"Redmond","country_code":"USA","latitude":47.67356,"longitude":-122.133621,"name":"eTalkup","category_code":"web","number_of_employees":5,"founded_year":2008}
{"city":"Boulder","country_code":"USA","latitude":40.018145,"longitude":-105.278109,"name":"Occipital","category_code":"software","number_of_employees":9,"founded_year":2008}
{"city":"San Marcos","country_code":"USA","latitude":29.876617,"longitude":-97.940336,"name":"App Cubby","category_code":"mobile","number_of_employees":2,"founded_year":2008}
{"city":"Vienna","country_code":"AUT","latitude":48.182591,"longitude":16.357786,"name":"Cityflats4you","category_code":"web","number_of_employees":2,"founded_year":2008}
{"city":"San Francisco","country_code":"USA","latitude":37.782101,"longitude":-122.389519,"name":"Carticipate","category_code":"mobile","number_of_employees":3,"founded_year":2008}
{"city":"New Delhi","country_code":"IND","latitude":28.554777,"longitude":77.210726,"name":"Diditz","category_code":"network_hosting","number_of_employees":2,"founded_year":2008}
{"city":"Amsterdam","country_code":"NLD","latitude":52.352201,"longitude":4.890314,"name":"NewMarCom","category_code":"consulting","number_of_employees":1,"founded_year":2008}
{"city":"Chandler","country_code":"USA","latitude":33.3176,"longitude":-111.8566,"name":"cosinity","category_code":"web","number_of_employees":1,"founded_year":2008}
{"city":"Sausalito","country_code":"USA","latitude":37.864435,"longitude":-122.490586,"name":"Adgregate Markets","category_code":"ecommerce","number_of_employees":20,"founded_year":2008}
{"city":"Sunnyvale","country_code":"USA","latitude":37.384239,"longitude":-122.012475,"name":"iCharts","category_code":"analytics","number_of_employees":16,"founded_year":2008}
{"city":"San Diego","country_code":"USA","latitude":32.718834,"longitude":-117.163841,"name":"Galaxy","category_code":"software","number_of_employees":2,"founded_year":2008}
{"city":"San Francisco","country_code":"USA","latitude":37.80204,"longitude":-122.438231,"name":"plaYce","category_code":"games_video","number_of_employees":7,"founded_year":2008}
{"city":"St Charles","country_code":"USA","latitude":41.931912,"longitude":-88.294854,"name":"IdenIve","category_code":"web","number_of_employees":1,"founded_year":2008}
{"city":"New York","country_code":"USA","latitude":40.775309,"longitude":-73.983656,"name":"Producteev","category_code":"software","number_of_employees":10,"founded_year":2008}
{"city":"Palo Alto","country_code":"USA","latitude":37.448598,"longitude":-122.158497,"name":"Bojam","category_code":"games_video","number_of_employees":5,"founded_year":2008}
{"city":"San Francisco","country_code":"USA","latitude":37.794124,"longitude":-122.403223,"name":"Twonq","category_code":"web","number_of_employees":3,"founded_year":2008}
{"city":"Delft","country_code":"NLD","latitude":51.9973515,"longitude":4.3848574,"name":"Twonq","category_code":"web","number_of_employees":3,"founded_year":2008}
{"city":"Philadelphia","country_code":"USA","latitude":39.951639,"longitude":-75.163808,"name":"The Impartial Observer","category_code":"web","number_of_employees":4,"founded_year":2008}
{"city":"Brookline","country_code":"USA","latitude":42.342152,"longitude":-71.121625,"name":"PicMe","category_code":"software","number_of_employees":3,"founded_year":2008}
{"city":"Bangalore","country_code":"IND","latitude":12.971606,"longitude":77.594376,"name":"eLagaan","category_code":"web","number_of_employees":20,"founded_year":2008}
{"city":"Fremont","country_code":"USA","latitude":37.3110283,"longitude":-121.9501439,"name":"eLagaan","category_code":"web","number_of_employees":20,"founded_year":2008}
{"city":"","country_code":"USA","latitude":40.756054,"longitude":-73.986951,"name":"Papervitamins","category_code":"web","number_of_employees":2,"founded_year":2008}
{"city":"Yokohama","country_code":"JPN","latitude":35.4437078,"longitude":139.6380256,"name":"Papervitamins","category_code":"web","number_of_employees":2,"founded_year":2008}
{"city":"Poway","country_code":"USA","latitude":32.981201,"longitude":-117.062239,"name":"CropMom","category_code":"software","number_of_employees":3,"founded_year":2008}
{"city":"Los Gatos","country_code":"USA","latitude":37.228232,"longitude":-121.987122,"name":"911ice","category_code":"web","number_of_employees":4,"founded_year":2008}
{"city":"San Francisco","country_code":"USA","latitude":37.7753,"longitude":-122.4186,"name":"TopNotchThemes","category_code":"ecommerce","number_of_employees":5,"founded_year":2008}
{"city":"","country_code":"USA","latitude":40.822087,"longitude":-73.950677,"name":"Klatcher","category_code":"web","number_of_employees":5,"founded_year":2008}
{"city":"","country_code":"USA","latitude":44.528743,"longitude":-88.10135,"name":"Pepmall","category_code":"ecommerce","number_of_employees":2,"founded_year":2008}
{"city":"Charlotte","country_code":"USA","latitude":35.208745,"longitude":-80.83722,"name":"splaht!","category_code":"web","number_of_employees":2,"founded_year":2008}
{"city":"Madrid","country_code":"ESP","latitude":40.412323,"longitude":-3.703248,"name":"Daily Flat Rental","category_code":"ecommerce","number_of_employees":2,"founded_year":2008}
{"city":"Cupertino","country_code":"USA","latitude":37.323234,"longitude":-122.055177,"name":"Spare Change Payments","category_code":"web","number_of_employees":8,"founded_year":2008}
{"city":"Holly Springs","country_code":"USA","latitude":35.633134,"longitude":-78.862414,"name":"BrainyAtom","category_code":"ecommerce","number_of_employees":2,"founded_year":2008}
{"city":"Singapore","country_code":"SGP","latitude":1.308655,"longitude":103.861929,"name":"Jorbb","category_code":"web","number_of_employees":3,"founded_year":2008}
{"city":"Treviso","country_code":"ITA","latitude":45.657409,"longitude":12.22861,"name":"Dooit","category_code":"software","number_of_employees":10,"founded_year":2008}
{"city":"Atlanta","country_code":"USA","latitude":33.834764,"longitude":-84.378116,"name":"SimpleLeap Software","category_code":"software","number_of_employees":2,"founded_year":2008}
{"city":"Berkeley","country_code":"USA","latitude":37.8650275,"longitude":-122.2987371,"name":"Shastic","category_code":"software","number_of_employees":4,"founded_year":2008}
{"city":"Austin","country_code":"USA","latitude":30.443493,"longitude":-97.77512,"name":"SnapPages","category_code":"web","number_of_employees":4,"founded_year":2008}
{"city":"Champaign","country_code":"USA","latitude":40.090392,"longitude":-88.239237,"name":"TickerGram","category_code":"web","number_of_employees":2,"founded_year":2008}
{"city":"Berlin","country_code":"DEU","latitude":52.583651,"longitude":13.285504,"name":"UpdateStar","category_code":"software","number_of_employees":5,"founded_year":2008}
{"city":"Sydney","country_code":"AUS","latitude":-33.867139,"longitude":151.207114,"name":"uTag","category_code":"web","number_of_employees":5,"founded_year":2008}
{"city":"San Francisco","country_code":"USA","latitude":37.764395,"longitude":-122.401024,"name":"Pixelpipe","category_code":"mobile","number_of_employees":10,"founded_year":2008}
{"city":"New York","country_code":"USA","latitude":40.741441,"longitude":-73.999675,"name":"Samepoint","category_code":"web","number_of_employees":5,"founded_year":2008}
{"city":"San Francisco","country_code":"USA","latitude":37.78691,"longitude":-122.404403,"name":"InnerRewards","category_code":"ecommerce","number_of_employees":9,"founded_year":2008}
{"city":"New York","country_code":"USA","latitude":40.741594,"longitude":-73.990468,"name":"InnerRewards","category_code":"ecommerce","number_of_employees":9,"founded_year":2008}
{"city":"Wincanton","country_code":"GBR","latitude":51.386522,"longitude":0.544338,"name":"Webtogs","category_code":"ecommerce","number_of_employees":8,"founded_year":2008}
{"city":"Bonn","country_code":"DEU","latitude":50.710267,"longitude":7.066468,"name":"IT Stocklist","category_code":"web","number_of_employees":12,"founded_year":2008}
{"city":"Toronto","country_code":"CAN","latitude":43.708615,"longitude":-79.3891727,"name":"Rethink SEO","category_code":"consulting","number_of_employees":5,"founded_year":2008}
{"city":"Rotterdam","country_code":"NLD","latitude":51.906973,"longitude":4.463134,"name":"TimeRime","category_code":"web","number_of_employees":5,"founded_year":2008}
{"city":"Manhattan Beach","country_code":"USA","latitude":37.5758867,"longitude":-122.3277578,"name":"DealBase Corporation","category_code":"web","number_of_employees":3,"founded_year":2008}
{"city":"Jacksonville","country_code":"USA","latitude":30.310978,"longitude":-81.657707,"name":"Cliqset","category_code":"web","number_of_employees":5,"founded_year":2008}
{"city":"Aberdeen","country_code":"GBR","latitude":57.1254952,"longitude":-2.1334772,"name":"WWCTN","category_code":"web","number_of_employees":2,"founded_year":2008}
{"city":"Berkeley","country_code":"USA","latitude":37.871087,"longitude":-122.270913,"name":"Magoosh","category_code":"web","number_of_employees":13,"founded_year":2009}
{"city":"Plant City","country_code":"USA","latitude":28.007354,"longitude":-82.12341,"name":"iPads","category_code":"ecommerce","number_of_employees":2,"founded_year":2008}
{"city":"Pleasanton","country_code":"USA","latitude":37.639038,"longitude":-121.803522,"name":"NUresume","category_code":"web","number_of_employees":6,"founded_year":2008}
{"city":"","country_code":"USA","latitude":40.642591,"longitude":-73.974187,"name":"Curbsidebooty","category_code":"web","number_of_employees":2,"founded_year":2008}
{"city":"Redwood City","country_code":"USA","latitude":37.486368,"longitude":-122.230116,"name":"T-Cast Media Consulting","category_code":"consulting","number_of_employees":1,"founded_year":2008}
{"city":"New York","country_code":"USA","latitude":40.743157,"longitude":-74.006513,"name":"ecomii","category_code":"cleantech","number_of_employees":10,"founded_year":2008}
{"city":"St. Louis","country_code":"USA","latitude":38.627522,"longitude":-90.19841,"name":"Glued Network","category_code":"consulting","number_of_employees":2,"founded_year":2008}
{"city":"Toronto","country_code":"CAN","latitude":43.649017,"longitude":-79.375173,"name":"Linkbee","category_code":"web","number_of_employees":3,"founded_year":2008}
{"city":"Toledo","country_code":"USA","latitude":41.65292,"longitude":-83.577782,"name":"TWIOA","category_code":"games_video","number_of_employees":5,"founded_year":2008}
{"city":"Providence","country_code":"USA","latitude":41.8283241,"longitude":-71.4094864,"name":"DandyID","category_code":"web","number_of_employees":3,"founded_year":2008}
{"city":"Austin","country_code":"USA","latitude":30.268735,"longitude":-97.745209,"name":"PeoplePad","category_code":"web","number_of_employees":10,"founded_year":2008}
{"city":"Richmond","country_code":"USA","latitude":37.573792,"longitude":-77.37613,"name":"Mobelux","category_code":"software","number_of_employees":2,"founded_year":2008}
{"city":"Albuquerque","country_code":"USA","latitude":35.131172,"longitude":-106.520846,"name":"LoadStorm","category_code":"web","number_of_employees":4,"founded_year":2008}
{"city":"Austin","country_code":"USA","latitude":30.290699,"longitude":-97.750885,"name":"BuzzStream","category_code":"software","number_of_employees":8,"founded_year":2008}
{"city":"Seattle","country_code":"USA","latitude":47.627368,"longitude":-122.34229,"name":"findwell","category_code":"web","number_of_employees":7,"founded_year":2008}
{"city":"Sunnyvale","country_code":"USA","latitude":37.392268,"longitude":-121.991438,"name":"BuzzBuy","category_code":"ecommerce","number_of_employees":4,"founded_year":2008}
{"city":"Paris","country_code":"FRA","latitude":48.871174,"longitude":2.308019,"name":"Calameo","category_code":"web","number_of_employees":10,"founded_year":2008}
{"city":"Flowermound","country_code":"USA","latitude":29.550027,"longitude":-95.693347,"name":"ReplayGamez","category_code":"games_video","number_of_employees":10,"founded_year":2008}
{"city":"Dublin","country_code":"IRL","latitude":53.336139,"longitude":-6.249789,"name":"IGOpeople","category_code":"network_hosting","number_of_employees":4,"founded_year":2008}
{"city":"Toronto","country_code":"CAN","latitude":43.647,"longitude":-79.394325,"name":"fotoglif","category_code":"web","number_of_employees":6,"founded_year":2008}
{"city":"Miami","country_code":"USA","latitude":25.733027,"longitude":-80.432061,"name":"Denook","category_code":"games_video","number_of_employees":2,"founded_year":2008}
{"city":"BIDART","country_code":"FRA","latitude":43.4477272,"longitude":-1.5555799,"name":"iKlax Media","category_code":"software","number_of_employees":7,"founded_year":2008}
{"city":"Brea","country_code":"USA","latitude":33.9266484,"longitude":-117.8771193,"name":"TVLesson","category_code":"web","number_of_employees":18,"founded_year":2008}
{"city":"Toronto","country_code":"CAN","latitude":43.678782,"longitude":-79.439315,"name":"Vengeo","category_code":"software","number_of_employees":13,"founded_year":2008}
{"city":"Portland","country_code":"USA","latitude":45.529907,"longitude":-122.682376,"name":"FanSpan","category_code":"web","number_of_employees":2,"founded_year":2008}
{"city":"Budapest","country_code":"HUN","latitude":47.420458,"longitude":19.026118,"name":"NessDex","category_code":"web","number_of_employees":2,"founded_year":2008}
{"city":"Rotterdam","country_code":"NLD","latitude":51.920151,"longitude":4.480165,"name":"Expand Online","category_code":"consulting","number_of_employees":20,"founded_year":2008}
{"city":"Barrie,","country_code":"CAN","latitude":44.371496,"longitude":-79.668813,"name":"VIrtualVu","category_code":"web","number_of_employees":10,"founded_year":2008}
{"city":"Los Angeles","country_code":"USA","latitude":42.2802675,"longitude":-83.7420579,"name":"Mybandstock","category_code":"games_video","number_of_employees":19,"founded_year":2009}
{"city":"Campbell","country_code":"USA","latitude":37.280584,"longitude":-121.954985,"name":"Karmerd","category_code":"network_hosting","number_of_employees":1,"founded_year":2008}
{"city":"Spring Hill","country_code":"USA","latitude":28.552044,"longitude":-82.55582,"name":"Bleacher Advisor","category_code":"web","number_of_employees":1,"founded_year":2008}
{"city":"New York","country_code":"USA","latitude":40.740941,"longitude":-73.992609,"name":"Buzzr","category_code":"software","number_of_employees":5,"founded_year":2008}
{"city":"Johannesburg","country_code":"ZAF","latitude":-26.6401,"longitude":27.9361,"name":"Engineering Ideas","category_code":"consulting","number_of_employees":3,"founded_year":2008}
{"city":"Boston","country_code":"USA","latitude":41.587539,"longitude":-93.625499,"name":"Pongr","category_code":"software","number_of_employees":20,"founded_year":2008}
{"city":"Des Moines","country_code":"USA","latitude":42.3513279,"longitude":-71.0766717,"name":"Pongr","category_code":"software","number_of_employees":20,"founded_year":2008}
{"city":"Milwaukee","country_code":"USA","latitude":43.097697,"longitude":-87.895093,"name":"StellarSurvey","category_code":"software","number_of_employees":5,"founded_year":2008}
{"city":"Cesson S\u00c3\u00a9vign\u00c3\u00a9","country_code":"FRA","latitude":48.10583,"longitude":-1.611882,"name":"Maptimize","category_code":"web","number_of_employees":3,"founded_year":2008}
{"city":"San Francisco","country_code":"USA","latitude":39.9052263,"longitude":-86.0547016,"name":"Formspring","category_code":"web","number_of_employees":19,"founded_year":2009}
{"city":"New York","country_code":"USA","latitude":40.740145,"longitude":-73.985207,"name":"RGA Advisors, LLC","category_code":"consulting","number_of_employees":10,"founded_year":2008}
{"city":"Great Neck","country_code":"USA","latitude":40.784463,"longitude":-73.709665,"name":"RGA Advisors, LLC","category_code":"consulting","number_of_employees":10,"founded_year":2008}
{"city":"Toronto","country_code":"CAN","latitude":43.769479,"longitude":-79.44182,"name":"UptimeArchive","category_code":"web","number_of_employees":5,"founded_year":2008}
{"city":"Lisbon","country_code":"PRT","latitude":38.7071631,"longitude":-9.135517,"name":"FACEinHOLE","category_code":"web","number_of_employees":4,"founded_year":2008}
{"city":"Kiel","country_code":"DEU","latitude":54.339238,"longitude":10.1330337,"name":"friendmee","category_code":"network_hosting","number_of_employees":1,"founded_year":2008}
{"city":"Vancouver","country_code":"CAN","latitude":49.263588,"longitude":-123.138565,"name":"Sonichall","category_code":"games_video","number_of_employees":2,"founded_year":2008}
{"city":"New York","country_code":"USA","latitude":40.76945,"longitude":-73.951865,"name":"CarZen","category_code":"web","number_of_employees":5,"founded_year":2008}
{"city":"Abergavenny","country_code":"GBR","latitude":51.824849,"longitude":-3.020908,"name":"Blog to it","category_code":"web","number_of_employees":1,"founded_year":2008}
{"city":"Mandeville","country_code":"USA","latitude":29.973994,"longitude":-90.082202,"name":"Dukky","category_code":"analytics","number_of_employees":15,"founded_year":2008}
{"city":"Mountain View","country_code":"USA","latitude":44.868986,"longitude":-93.324191,"name":"Tidalwave Trader","category_code":"web","number_of_employees":5,"founded_year":2008}
{"city":"Bretten","country_code":"DEU","latitude":49.03767,"longitude":8.714079,"name":"telewebber","category_code":"games_video","number_of_employees":3,"founded_year":2008}
{"city":"Utrecht","country_code":"NLD","latitude":52.087496,"longitude":5.134585,"name":"Clubbyclub","category_code":"network_hosting","number_of_employees":5,"founded_year":2008}
{"city":"Dubai","country_code":"ARE","latitude":25.271139,"longitude":55.307485,"name":"eMapia","category_code":"ecommerce","number_of_employees":4,"founded_year":2008}
{"city":"Quebec","country_code":"CAN","latitude":46.8081938,"longitude":-71.2373393,"name":"Star Fever Agency","category_code":"games_video","number_of_employees":5,"founded_year":2009}
{"city":"San Jose","country_code":"USA","latitude":37.320006,"longitude":-121.880958,"name":"CityPorters","category_code":"web","number_of_employees":2,"founded_year":2008}
{"city":"Chicago","country_code":"USA","latitude":41.8790291,"longitude":-87.6385324,"name":"GC Marshall","category_code":"consulting","number_of_employees":1,"founded_year":2008}
{"city":"Moraga","country_code":"USA","latitude":37.860866,"longitude":-122.129671,"name":"Rubysophic","category_code":"software","number_of_employees":5,"founded_year":2008}
{"city":"New York","country_code":"USA","latitude":40.707268,"longitude":-74.001724,"name":"Cookstr","category_code":"web","number_of_employees":10,"founded_year":2008}
{"city":"Dulles","country_code":"USA","latitude":39.032142,"longitude":-77.423837,"name":"IFXworks","category_code":"consulting","number_of_employees":4,"founded_year":2008}
{"city":"Quebec","country_code":"CAN","latitude":46.812754,"longitude":-71.215223,"name":"PornLikeThat","category_code":"software","number_of_employees":1,"founded_year":2008}
{"city":"San Francisco","country_code":"USA","latitude":37.792303,"longitude":-122.423132,"name":"Tivix","category_code":"software","number_of_employees":18,"founded_year":2008}
{"city":"San Francisco","country_code":"USA","latitude":37.781262,"longitude":-122.394958,"name":"Virgance","category_code":"web","number_of_employees":15,"founded_year":2008}
{"city":"Los Angeles","country_code":"USA","latitude":34.024817,"longitude":-118.295117,"name":"booksRhere","category_code":"web","number_of_employees":1,"founded_year":2008}
{"city":"Ashland","country_code":"USA","latitude":42.183715,"longitude":-122.6883052,"name":"NewDocs","category_code":"web","number_of_employees":3,"founded_year":2008}
{"city":"San Francisco","country_code":"USA","latitude":37.775196,"longitude":-122.419204,"name":"148Apps","category_code":"software","number_of_employees":1,"founded_year":2008}
{"city":"Denver","country_code":"USA","latitude":39.766292,"longitude":-104.900722,"name":"Mondo Food","category_code":"ecommerce","number_of_employees":2,"founded_year":2008}
{"city":"Soquel","country_code":"USA","latitude":37.0391044,"longitude":-121.958687,"name":"ForGrabs","category_code":"web","number_of_employees":5,"founded_year":2008}
{"city":"Bangalore","country_code":"IND","latitude":12.9561278,"longitude":77.5922642,"name":"Aghreni Technologies","category_code":"software","number_of_employees":15,"founded_year":2008}
{"city":"New York","country_code":"USA","latitude":40.744549,"longitude":-73.988071,"name":"Aghreni Technologies","category_code":"software","number_of_employees":15,"founded_year":2008}
{"city":"Toronto","country_code":"CAN","latitude":43.6453258,"longitude":-79.3956689,"name":"Daily Challenge","category_code":"network_hosting","number_of_employees":7,"founded_year":2008}
{"city":"Vancouver","country_code":"CAN","latitude":49.263588,"longitude":-123.138565,"name":"DreamBank","category_code":"web","number_of_employees":10,"founded_year":2008}
{"city":"Darlinghurst","country_code":"AUS","latitude":-33.8719926,"longitude":151.1936039,"name":"Allure Media","category_code":"web","number_of_employees":15,"founded_year":2008}
{"city":"Atlanta","country_code":"USA","latitude":33.961646,"longitude":-84.368975,"name":"ZOOZ Mobile","category_code":"games_video","number_of_employees":5,"founded_year":2008}
{"city":"Brussels","country_code":"BEL","latitude":50.7963208,"longitude":4.401195,"name":"Commentag","category_code":"web","number_of_employees":3,"founded_year":2008}
{"city":"Spring Hill","country_code":"USA","latitude":28.4370407,"longitude":-82.490137,"name":"Dorman Media","category_code":"web","number_of_employees":1,"founded_year":2008}
{"city":"Grand Rapids","country_code":"USA","latitude":42.9608776,"longitude":-85.6734906,"name":"Ascribe","category_code":"software","number_of_employees":9,"founded_year":2008}
{"city":"Sacramento","country_code":"USA","latitude":38.517538,"longitude":-121.481826,"name":"Balsamiq","category_code":"web","number_of_employees":9,"founded_year":2008}
{"city":"Bangalore, Karnataka","country_code":"IND","latitude":12.9737322,"longitude":77.5384384,"name":"Innoz","category_code":"mobile","number_of_employees":5,"founded_year":2008}
{"city":"Miami","country_code":"USA","latitude":25.769174,"longitude":-80.331681,"name":"Aligned Global","category_code":"software","number_of_employees":15,"founded_year":2008}
{"city":"Bournemouth","country_code":"GBR","latitude":50.7229432,"longitude":-1.8813105,"name":"myJournal","category_code":"network_hosting","number_of_employees":8,"founded_year":2008}
{"city":"Austin","country_code":"USA","latitude":30.4156188,"longitude":-97.8014482,"name":"Saltlick Labs","category_code":"mobile","number_of_employees":3,"founded_year":2008}
{"city":"Sydney","country_code":"AUS","latitude":-33.867139,"longitude":151.207114,"name":"Saltlick Labs","category_code":"mobile","number_of_employees":3,"founded_year":2008}
{"city":"Los Angeles","country_code":"USA","latitude":34.052187,"longitude":-118.243425,"name":"Saltlick Labs","category_code":"mobile","number_of_employees":3,"founded_year":2008}
{"city":"Manchester","country_code":"GBR","latitude":53.4837067,"longitude":-2.2439492,"name":"Clowdy","category_code":"web","number_of_employees":11,"founded_year":2013}
{"city":"Mountain View","country_code":"USA","latitude":37.400465,"longitude":-122.073003,"name":"Fuzzyshot","category_code":"mobile","number_of_employees":3,"founded_year":2008}
{"city":"Louvain-la-Neuve   ,Ottignies","country_code":"BEL","latitude":50.6713314,"longitude":4.6102492,"name":"iStockCV","category_code":"web","number_of_employees":1,"founded_year":2008}
{"city":"Salt Lake City","country_code":"USA","latitude":40.645225,"longitude":-111.967798,"name":"SocialToo","category_code":"web","number_of_employees":2,"founded_year":2008}
{"city":"Macon","country_code":"USA","latitude":32.850489,"longitude":-83.674786,"name":"DoggieInk","category_code":"web","number_of_employees":6,"founded_year":2008}
{"city":"Vancouver","country_code":"CAN","latitude":49.2812342,"longitude":-123.1043395,"name":"Oggle Interactive","category_code":"software","number_of_employees":4,"founded_year":2008}
{"city":"Laval","country_code":"CAN","latitude":45.5411602,"longitude":-73.7481222,"name":"InnovSoft Consulting Limited","category_code":"games_video","number_of_employees":7,"founded_year":2008}
{"city":"Toronto","country_code":"CAN","latitude":43.8102632,"longitude":-79.2202391,"name":"AndSpot","category_code":"mobile","number_of_employees":6,"founded_year":2008}
{"city":"Las Vegas","country_code":"USA","latitude":36.1807572,"longitude":-115.242203,"name":"Herrmann NA","category_code":"web","number_of_employees":4,"founded_year":2008}
{"city":"Berkeley","country_code":"USA","latitude":37.870457,"longitude":-122.268354,"name":"Carsala","category_code":"web","number_of_employees":8,"founded_year":2009}
{"city":"Paris","country_code":"FRA","latitude":48.8566667,"longitude":2.3509871,"name":"Tiiptop","category_code":"web","number_of_employees":3,"founded_year":2008}
{"city":"Langley","country_code":"CAN","latitude":49.1261967,"longitude":-122.6643702,"name":"GoalsOnTrack","category_code":"software","number_of_employees":2,"founded_year":2008}
{"city":"Tulsa","country_code":"USA","latitude":36.0179373,"longitude":-95.8685249,"name":"Raffstar","category_code":"web","number_of_employees":4,"founded_year":2008}
{"city":"Bristol","country_code":"GBR","latitude":51.4749263,"longitude":-2.6136797,"name":"Speedchecker","category_code":"web","number_of_employees":2,"founded_year":2008}
{"city":"San Francisco","country_code":"USA","latitude":32.718834,"longitude":-117.163841,"name":"ZingSale","category_code":"ecommerce","number_of_employees":2,"founded_year":2008}
{"city":"Santa Ana","country_code":"USA","latitude":33.69568,"longitude":-117.866187,"name":"1DayMakeover","category_code":"ecommerce","number_of_employees":6,"founded_year":2008}
{"city":"Toronto","country_code":"CAN","latitude":43.670233,"longitude":-79.386755,"name":"Blue Parabola","category_code":"consulting","number_of_employees":3,"founded_year":2008}
{"city":"Romsey","country_code":"GBR","latitude":50.9991134,"longitude":-1.4750789,"name":"utopia 365","category_code":"mobile","number_of_employees":2,"founded_year":2008}
{"city":"Vancouver","country_code":"CAN","latitude":49.263588,"longitude":-123.138565,"name":"Pinota","category_code":"mobile","number_of_employees":3,"founded_year":2008}
{"city":"Roswell","country_code":"USA","latitude":34.018504,"longitude":-84.377834,"name":"PostMapper","category_code":"web","number_of_employees":1,"founded_year":2008}
{"city":"Lillehammer","country_code":"NOR","latitude":61.1026207,"longitude":10.5077091,"name":"Nylvi","category_code":"ecommerce","number_of_employees":4,"founded_year":2008}
{"city":"Berlin","country_code":"DEU","latitude":52.5297341,"longitude":13.4101097,"name":"Nylvi","category_code":"ecommerce","number_of_employees":4,"founded_year":2008}
{"city":"Tulsa","country_code":"USA","latitude":36.0463849,"longitude":-95.9550264,"name":"mobiManage","category_code":"mobile","number_of_employees":15,"founded_year":2008}
{"city":"Scottsdale","country_code":"USA","latitude":33.502612,"longitude":-111.9315649,"name":"mobiManage","category_code":"mobile","number_of_employees":15,"founded_year":2008}
{"city":"Evanston","country_code":"USA","latitude":42.062669,"longitude":-87.720068,"name":"Ethervision","category_code":"consulting","number_of_employees":5,"founded_year":2008}
{"city":"Seattle","country_code":"USA","latitude":47.6254784,"longitude":-122.3564234,"name":"Valu Valu","category_code":"games_video","number_of_employees":3,"founded_year":2008}
{"city":"New York","country_code":"USA","latitude":40.756054,"longitude":-73.986951,"name":"People Capital","category_code":"web","number_of_employees":10,"founded_year":2008}
{"city":"San Mateo","country_code":"USA","latitude":37.5349925,"longitude":-122.3050823,"name":"Fitnio","category_code":"software","number_of_employees":3,"founded_year":2008}
{"city":"Raleigh","country_code":"USA","latitude":35.956609,"longitude":-78.698154,"name":"b2b2dot0","category_code":"ecommerce","number_of_employees":5,"founded_year":2008}
{"city":"Singapore","country_code":"SGP","latitude":1.279684,"longitude":103.842646,"name":"JobsTAXI","category_code":"web","number_of_employees":12,"founded_year":2008}
{"city":"Amsterdam","country_code":"NLD","latitude":52.342938,"longitude":4.8419083,"name":"Gemzies","category_code":"games_video","number_of_employees":3,"founded_year":2008}
{"city":"cedex","country_code":"FRA","latitude":49.5332371,"longitude":2.1346593,"name":"Planzone","category_code":"software","number_of_employees":17,"founded_year":2008}
{"city":"Oakland","country_code":"USA","latitude":37.82043,"longitude":-122.195779,"name":"Montclair Advisors","category_code":"consulting","number_of_employees":5,"founded_year":2008}
{"city":"Palo Alto","country_code":"USA","latitude":37.8097439,"longitude":-121.9909454,"name":"MarketRiders","category_code":"web","number_of_employees":4,"founded_year":2008}
{"city":"Baltimore","country_code":"USA","latitude":39.30677,"longitude":-76.614442,"name":"Guaranteach","category_code":"web","number_of_employees":7,"founded_year":2008}
{"city":"Longmont","country_code":"USA","latitude":29.759956,"longitude":-95.362534,"name":"SHUB","category_code":"mobile","number_of_employees":2,"founded_year":2008}
{"city":"Leuven","country_code":"BEL","latitude":50.867206,"longitude":4.700737,"name":"TrackMyPeople","category_code":"web","number_of_employees":3,"founded_year":2008}
{"city":"Dallas","country_code":"USA","latitude":32.781078,"longitude":-96.797111,"name":"Renterval","category_code":"web","number_of_employees":2,"founded_year":2008}
{"city":"Omaha","country_code":"USA","latitude":41.2437917,"longitude":-96.0172896,"name":"Tellwiki","category_code":"web","number_of_employees":3,"founded_year":2008}
{"city":"Brooklyn","country_code":"USA","latitude":40.702692,"longitude":-73.989613,"name":"gliider","category_code":"web","number_of_employees":5,"founded_year":2008}
{"city":"Cork","country_code":"IRL","latitude":52.6423449,"longitude":-8.5878882,"name":"Weddingdates","category_code":"web","number_of_employees":2,"founded_year":2008}
{"city":"San Francisco","country_code":"USA","latitude":37.7890183,"longitude":-122.3915063,"name":"Circle of Moms","category_code":"web","number_of_employees":9,"founded_year":2008}
{"city":"London","country_code":"GBR","latitude":51.5206245,"longitude":-0.1168286,"name":"Skipso","category_code":"cleantech","number_of_employees":7,"founded_year":2008}
{"city":"Gijon","country_code":"ESP","latitude":43.5222205,"longitude":-5.665828,"name":"Heralsoft","category_code":"web","number_of_employees":2,"founded_year":2008}
{"city":"Seattle","country_code":"USA","latitude":61.216583,"longitude":-149.899597,"name":"Social1000","category_code":"network_hosting","number_of_employees":1,"founded_year":2009}
{"city":"Seattle","country_code":"USA","latitude":47.5990906,"longitude":-122.335109,"name":"able2know","category_code":"web","number_of_employees":5,"founded_year":2008}
{"city":"Elmhurst","country_code":"USA","latitude":41.8793918,"longitude":-87.9614042,"name":"Shortlister","category_code":"ecommerce","number_of_employees":2,"founded_year":2008}
{"city":"Berlin","country_code":"DEU","latitude":52.5273098,"longitude":13.3922487,"name":"TRIBAX","category_code":"network_hosting","number_of_employees":12,"founded_year":2008}
{"city":"New York","country_code":"USA","latitude":40.756054,"longitude":-73.986951,"name":"Livekick","category_code":"web","number_of_employees":4,"founded_year":2009}
{"city":"Amsterdam","country_code":"NLD","latitude":52.3630898,"longitude":4.8920901,"name":"Twones","category_code":"games_video","number_of_employees":6,"founded_year":2008}
{"city":"Barcelona","country_code":"ESP","latitude":41.4241228,"longitude":2.1634249,"name":"Tengaged","category_code":"games_video","number_of_employees":1,"founded_year":2010}
{"city":"Boston","country_code":"USA","latitude":42.376862,"longitude":-71.14462,"name":"Drync","category_code":"mobile","number_of_employees":8,"founded_year":2008}
{"city":"Helsinki","country_code":"FIN","latitude":60.167909,"longitude":24.9639412,"name":"Redriever","category_code":"mobile","number_of_employees":6,"founded_year":2008}
{"city":"","country_code":"CAN","latitude":43.4608103,"longitude":-79.7441633,"name":"Redriever","category_code":"mobile","number_of_employees":6,"founded_year":2008}
{"city":"San Franciso","country_code":"USA","latitude":37.794891,"longitude":-122.397901,"name":"Zentact","category_code":"network_hosting","number_of_employees":2,"founded_year":2008}
{"city":"Cupertino","country_code":"USA","latitude":37.3183828,"longitude":-122.0304277,"name":"Voyij","category_code":"web","number_of_employees":4,"founded_year":2008}
{"city":"Newport Beach","country_code":"USA","latitude":33.6187,"longitude":-117.9283,"name":"Utxtud8","category_code":"mobile","number_of_employees":5,"founded_year":2008}
{"city":"Tampa","country_code":"USA","latitude":27.98141,"longitude":-82.451141,"name":"Know Your Venue","category_code":"games_video","number_of_employees":2,"founded_year":2008}
{"city":"Erie","country_code":"USA","latitude":42.1119336,"longitude":-80.1261226,"name":"Diverse Ventures","category_code":"web","number_of_employees":4,"founded_year":2008}
{"city":"Palo Alto","country_code":"USA","latitude":37.4417,"longitude":-122.1417,"name":"Webzzle","category_code":"web","number_of_employees":10,"founded_year":2008}
{"city":"Paris","country_code":"FRA","latitude":43.1677247,"longitude":0.4198481,"name":"Webzzle","category_code":"web","number_of_employees":10,"founded_year":2008}
{"city":"Milpitas","country_code":"USA","latitude":37.400489,"longitude":-121.915037,"name":"Mobizim","category_code":"mobile","number_of_employees":3,"founded_year":2008}
{"city":"Kansas City","country_code":"USA","latitude":39.0587186,"longitude":-94.6084479,"name":"Orbis Biosciences","category_code":"biotech","number_of_employees":4,"founded_year":2008}
{"city":"Portland","country_code":"USA","latitude":45.523875,"longitude":-122.670399,"name":"CitySpeek","category_code":"web","number_of_employees":2,"founded_year":2008}
{"city":"","country_code":"CAN","latitude":49.263588,"longitude":-123.138565,"name":"MPLOYR","category_code":"web","number_of_employees":2,"founded_year":2008}
{"city":"Pompano Beach","country_code":"USA","latitude":26.2480738,"longitude":-80.135487,"name":"Reachoo","category_code":"software","number_of_employees":3,"founded_year":2010}
{"city":"IRVINGTON","country_code":"USA","latitude":40.727533,"longitude":-74.230704,"name":"popdat","category_code":"web","number_of_employees":10,"founded_year":2008}
{"city":"Costa Mesa","country_code":"USA","latitude":33.6396749,"longitude":-117.9416077,"name":"ZimpleMoney","category_code":"software","number_of_employees":8,"founded_year":2008}
{"city":"Indianapolis","country_code":"USA","latitude":39.850348,"longitude":-86.120971,"name":"Professional Blog Service","category_code":"web","number_of_employees":4,"founded_year":2008}
{"city":"seattle","country_code":"USA","latitude":47.620973,"longitude":-122.347276,"name":"Stax Networks","category_code":"web","number_of_employees":8,"founded_year":2008}
{"city":"Oakland","country_code":"USA","latitude":37.81098,"longitude":-122.265978,"name":"FilmSuggest","category_code":"games_video","number_of_employees":2,"founded_year":2008}
{"city":"San Diego","country_code":"USA","latitude":32.7161896,"longitude":-117.168697,"name":"StockTwits","category_code":"web","number_of_employees":12,"founded_year":2008}
{"city":"Seefeld","country_code":"DEU","latitude":48.0387806,"longitude":11.1974291,"name":"FutureTap","category_code":"software","number_of_employees":1,"founded_year":2008}
{"city":"Tartu","country_code":"EST","latitude":58.3820245,"longitude":26.7229199,"name":"Krabi ja Mask","category_code":"software","number_of_employees":4,"founded_year":2008}
{"city":"San Francisco","country_code":"USA","latitude":37.8053241,"longitude":-122.4052761,"name":"Indee","category_code":"games_video","number_of_employees":3,"founded_year":2010}
{"city":"Seattle","country_code":"USA","latitude":47.6042663,"longitude":-122.3328401,"name":"Implied Solutions","category_code":"software","number_of_employees":1,"founded_year":2008}
{"city":"Cologne","country_code":"DEU","latitude":50.9471389,"longitude":6.9410409,"name":"CtoJ","category_code":"consulting","number_of_employees":4,"founded_year":2008}
{"city":"Ankara","country_code":"TUR","latitude":39.898894,"longitude":32.774928,"name":"Userspots","category_code":"consulting","number_of_employees":4,"founded_year":2008}
{"city":"Old Bridge","country_code":"USA","latitude":37.7181398,"longitude":-122.4863492,"name":"xzapps","category_code":"software","number_of_employees":2,"founded_year":2008}
{"city":"Miami","country_code":"USA","latitude":25.841678,"longitude":-80.191821,"name":"MixMyGranola","category_code":"web","number_of_employees":3,"founded_year":2008}
{"city":"Beverly Hills","country_code":"USA","latitude":34.066118,"longitude":-118.378606,"name":"Remixin","category_code":"games_video","number_of_employees":2,"founded_year":2008}
{"city":"","country_code":"SGP","latitude":1.3523202,"longitude":103.8422526,"name":"mTelematics","category_code":"mobile","number_of_employees":10,"founded_year":2008}
{"city":"Copley","country_code":"USA","latitude":41.1208235,"longitude":-81.6643523,"name":"Jobvue","category_code":"games_video","number_of_employees":1,"founded_year":2008}
{"city":"Denver","country_code":"USA","latitude":39.3926188,"longitude":-104.8943767,"name":"espor","category_code":"software","number_of_employees":19,"founded_year":2008}
{"city":"Santa Monica","country_code":"USA","latitude":34.0028373,"longitude":-118.4844228,"name":"Tsavo Agency","category_code":"web","number_of_employees":15,"founded_year":2008}
{"city":"Great Falls","country_code":"USA","latitude":39.012377,"longitude":-77.293817,"name":"C2G","category_code":"web","number_of_employees":5,"founded_year":2008}
{"city":"Atlanta","country_code":"USA","latitude":33.922157,"longitude":-84.335965,"name":"MediaWheel","category_code":"web","number_of_employees":7,"founded_year":2008}
{"city":"Philadelphia","country_code":"USA","latitude":39.9443552,"longitude":-75.1257381,"name":"RJMetrics","category_code":"software","number_of_employees":20,"founded_year":2008}
{"city":"Ringwood, Hampshire","country_code":"GBR","latitude":50.841938,"longitude":-1.7884785,"name":"GymFu","category_code":"web","number_of_employees":3,"founded_year":2009}
{"city":"New York","country_code":"USA","latitude":40.5889016,"longitude":-73.9447994,"name":"Do You Wanna Hook Up?","category_code":"web","number_of_employees":3,"founded_year":2009}
{"city":"Austin","country_code":"USA","latitude":30.2019822,"longitude":-97.8781376,"name":"Deal Linker","category_code":"ecommerce","number_of_employees":1,"founded_year":2008}
{"city":"Torreon, Coahuila","country_code":"MEX","latitude":25.5230058,"longitude":-103.4174464,"name":"facelovefinder","category_code":"web","number_of_employees":1,"founded_year":2009}
{"city":"Paris","country_code":"FRA","latitude":48.8566667,"longitude":2.3509871,"name":"Vibeex","category_code":"games_video","number_of_employees":1,"founded_year":2008}
{"city":"Mountain View","country_code":"USA","latitude":37.384297,"longitude":-122.072998,"name":"CureTogether","category_code":"web","number_of_employees":3,"founded_year":2008}
{"city":"Hoboken","country_code":"USA","latitude":40.7370784,"longitude":-74.0348315,"name":"IAmInTown","category_code":"web","number_of_employees":3,"founded_year":2008}
{"city":"London","country_code":"GBR","latitude":51.5374249,"longitude":-0.2065907,"name":"Demotix","category_code":"web","number_of_employees":8,"founded_year":2008}
{"city":"Leawood","country_code":"USA","latitude":38.93842,"longitude":-94.616021,"name":"TwittBot","category_code":"web","number_of_employees":1,"founded_year":2008}
{"city":"Van Nuys","country_code":"USA","latitude":40.650291,"longitude":-74.294395,"name":"eCampusCash","category_code":"web","number_of_employees":3,"founded_year":2010}
{"city":"Le Bourget du lac","country_code":"FRA","latitude":45.646721,"longitude":5.8707318,"name":"Ricochets Interactive","category_code":"consulting","number_of_employees":3,"founded_year":2008}
{"city":"London","country_code":"GBR","latitude":51.5001524,"longitude":-0.1262362,"name":"CareerPlayer","category_code":"games_video","number_of_employees":5,"founded_year":2008}
{"city":"Exeter","country_code":"GBR","latitude":50.7492228,"longitude":-3.4934555,"name":"Bid for Wine","category_code":"ecommerce","number_of_employees":3,"founded_year":2008}
{"city":"Wheeling","country_code":"USA","latitude":40.0676659,"longitude":-80.7237385,"name":"iugo","category_code":"software","number_of_employees":5,"founded_year":2008}
{"city":"Philadelphia","country_code":"USA","latitude":40.032121,"longitude":-75.191867,"name":"iugo","category_code":"software","number_of_employees":5,"founded_year":2008}
{"city":"Franklin","country_code":"USA","latitude":35.933677,"longitude":-86.856457,"name":"MacMedic PRO","category_code":"consulting","number_of_employees":1,"founded_year":2008}
{"city":"Jackson","country_code":"USA","latitude":43.479618,"longitude":-110.762347,"name":"Pixel Spills","category_code":"consulting","number_of_employees":1,"founded_year":2008}
{"city":"Maastricht","country_code":"NLD","latitude":50.8498466,"longitude":5.6872594,"name":"Storytlr","category_code":"network_hosting","number_of_employees":2,"founded_year":2008}
{"city":"Liege","country_code":"BEL","latitude":50.6406495,"longitude":5.5720466,"name":"Storytlr","category_code":"network_hosting","number_of_employees":2,"founded_year":2008}
{"city":"London","country_code":"GBR","latitude":51.4944999,"longitude":-0.1479318,"name":"Kramaley Games","category_code":"games_video","number_of_employees":5,"founded_year":2008}
{"city":"Huntington Beach","country_code":"USA","latitude":33.742397,"longitude":-118.033495,"name":"Lymabean","category_code":"web","number_of_employees":4,"founded_year":2008}
{"city":"Dublin","country_code":"IRL","latitude":53.344104,"longitude":-6.2674937,"name":"ZeroTouch","category_code":"consulting","number_of_employees":5,"founded_year":2008}
{"city":"Amherst","country_code":"USA","latitude":42.3756007,"longitude":-72.4436464,"name":"Otalo","category_code":"web","number_of_employees":2,"founded_year":2009}
{"city":"Chirens","country_code":"FRA","latitude":45.4092403,"longitude":5.5511813,"name":"Digiprof","category_code":"games_video","number_of_employees":1,"founded_year":2008}
{"city":"Troy","country_code":"USA","latitude":43.88487,"longitude":-85.794905,"name":"Flowz","category_code":"web","number_of_employees":4,"founded_year":2008}
{"city":"Charlotte","country_code":"USA","latitude":35.058275,"longitude":-80.776641,"name":"ORY Software","category_code":"web","number_of_employees":1,"founded_year":2008}
{"city":"Palo Alto","country_code":"USA","latitude":37.4459832,"longitude":-122.1490582,"name":"Trutoon","category_code":"web","number_of_employees":5,"founded_year":2008}
{"city":"Houston","country_code":"USA","latitude":29.714229,"longitude":-95.527479,"name":"Digital Meld","category_code":"web","number_of_employees":5,"founded_year":2009}
{"city":"Helsinki","country_code":"FIN","latitude":60.206789,"longitude":24.9754678,"name":"One did it","category_code":"web","number_of_employees":7,"founded_year":2008}
{"city":"Pelham","country_code":"USA","latitude":40.904885,"longitude":-73.801901,"name":"CalendarFly","category_code":"web","number_of_employees":2,"founded_year":2008}
{"city":"Porter Ranch","country_code":"USA","latitude":34.2748055,"longitude":-118.5560776,"name":"Corkin","category_code":"ecommerce","number_of_employees":2,"founded_year":2008}
{"city":"Cambridge","country_code":"USA","latitude":42.388621,"longitude":-71.132583,"name":"JotNot","category_code":"mobile","number_of_employees":3,"founded_year":2008}
{"city":"Toronto","country_code":"CAN","latitude":43.6491109,"longitude":-79.3780255,"name":"TalentEgg","category_code":"web","number_of_employees":3,"founded_year":2008}
{"city":"Montreal","country_code":"CAN","latitude":45.4928591,"longitude":-73.5825418,"name":"Twtapps","category_code":"web","number_of_employees":1,"founded_year":2009}
{"city":"London","country_code":"GBR","latitude":51.5359008,"longitude":-0.2055081,"name":"Filmed Media","category_code":"games_video","number_of_employees":10,"founded_year":2008}
{"city":"Los Angeles","country_code":"USA","latitude":34.049246,"longitude":-118.395346,"name":"Trustworthy","category_code":"web","number_of_employees":5,"founded_year":2008}
{"city":"Westford","country_code":"USA","latitude":42.610112,"longitude":-71.442225,"name":"iShopWiser","category_code":"ecommerce","number_of_employees":2,"founded_year":2009}
{"city":"Warminster","country_code":"USA","latitude":40.197932,"longitude":-75.099101,"name":"eShark Network","category_code":"software","number_of_employees":2,"founded_year":2008}
{"city":"San Antonio","country_code":"USA","latitude":29.414897,"longitude":-98.48972,"name":"Blellow","category_code":"web","number_of_employees":5,"founded_year":2008}
{"city":"Atlanta","country_code":"USA","latitude":33.754487,"longitude":-84.389663,"name":"Feedscrub","category_code":"web","number_of_employees":3,"founded_year":2008}
{"city":"Brunete","country_code":"ESP","latitude":40.4086268,"longitude":-3.9970381,"name":"Social Gaming Platform","category_code":"network_hosting","number_of_employees":3,"founded_year":2008}
{"city":"Barcelona","country_code":"ESP","latitude":41.3806494,"longitude":2.1687187,"name":"Intergrid","category_code":"network_hosting","number_of_employees":5,"founded_year":2008}
{"city":"london","country_code":"GBR","latitude":51.4213618,"longitude":-0.2075938,"name":"sexietv","category_code":"software","number_of_employees":5,"founded_year":2008}
{"city":"Toronto, Ontario","country_code":"CAN","latitude":43.7694794,"longitude":-79.4418205,"name":"Uptimehost","category_code":"network_hosting","number_of_employees":5,"founded_year":2008}
{"city":"Sunnyvale","country_code":"USA","latitude":37.3492097,"longitude":-122.0326019,"name":"OutlookCloud","category_code":"software","number_of_employees":10,"founded_year":2008}
{"city":"Bilthoven","country_code":"NLD","latitude":52.1424695,"longitude":5.2092075,"name":"SAMP2","category_code":"games_video","number_of_employees":10,"founded_year":2008}
{"city":"San Mateo","country_code":"USA","latitude":37.560236,"longitude":-122.286752,"name":"Fund Mojo","category_code":"web","number_of_employees":2,"founded_year":2008}
{"city":"Kirkland","country_code":"USA","latitude":47.6667342,"longitude":-122.1958685,"name":"Sabi","category_code":"games_video","number_of_employees":5,"founded_year":2008}
{"city":"Arlington","country_code":"USA","latitude":32.6826815,"longitude":-97.1955592,"name":"Sixteen Ventures","category_code":"consulting","number_of_employees":3,"founded_year":2008}
{"city":"Washington","country_code":"USA","latitude":38.9169394,"longitude":-77.0852258,"name":"GrouperEye","category_code":"web","number_of_employees":3,"founded_year":2009}
{"city":"White Horse Beach","country_code":"USA","latitude":41.8798535,"longitude":-70.600416,"name":"Jumper Networks","category_code":"software","number_of_employees":20,"founded_year":2008}
{"city":"Brussels","country_code":"BEL","latitude":50.837051,"longitude":4.367612,"name":"Skilto","category_code":"ecommerce","number_of_employees":2,"founded_year":2009}
{"city":"Cranford","country_code":"USA","latitude":40.6569929,"longitude":-74.3059546,"name":"Dog Files","category_code":"games_video","number_of_employees":3,"founded_year":2008}
{"city":"Chicago","country_code":"USA","latitude":41.885408,"longitude":-87.625677,"name":"midVentures","category_code":"web","number_of_employees":10,"founded_year":2008}
{"city":"Pacifica","country_code":"USA","latitude":37.4561297,"longitude":-122.1235054,"name":"trekaroo","category_code":"web","number_of_employees":4,"founded_year":2008}
{"city":"Lisboa","country_code":"PRT","latitude":38.7509471,"longitude":-9.1427493,"name":"Enough Pepper","category_code":"web","number_of_employees":4,"founded_year":2008}
{"city":"Munich","country_code":"DEU","latitude":48.1210729,"longitude":11.5853709,"name":"Digital Bloom","category_code":"ecommerce","number_of_employees":5,"founded_year":2008}
{"city":"New York","country_code":"USA","latitude":40.718177,"longitude":-74.004602,"name":"Digital Bloom","category_code":"ecommerce","number_of_employees":5,"founded_year":2008}
{"city":"Macomb","country_code":"USA","latitude":42.6547932,"longitude":-82.9178838,"name":"DooShare","category_code":"web","number_of_employees":1,"founded_year":2008}
{"city":"Washington, D.C.","country_code":"USA","latitude":38.905242,"longitude":-77.050052,"name":"Leximo","category_code":"web","number_of_employees":2,"founded_year":2008}
{"city":"Boston","country_code":"USA","latitude":42.3552011,"longitude":-71.0542339,"name":"Pistachio Consulting","category_code":"consulting","number_of_employees":1,"founded_year":2008}
{"city":"San Francisco","country_code":"USA","latitude":37.788796,"longitude":-122.40971,"name":"KODA","category_code":"web","number_of_employees":15,"founded_year":2008}
{"city":"New Orleans","country_code":"USA","latitude":29.9739941,"longitude":-90.0822015,"name":"KODA","category_code":"web","number_of_employees":15,"founded_year":2008}
{"city":"Van Nuys","country_code":"USA","latitude":34.213925,"longitude":-118.487236,"name":"Audiolife","category_code":"ecommerce","number_of_employees":11,"founded_year":2008}
{"city":"New York","country_code":"USA","latitude":40.7464969,"longitude":-74.0094471,"name":"Jobulous","category_code":"web","number_of_employees":6,"founded_year":2008}
{"city":"Boston","country_code":"USA","latitude":42.35892,"longitude":-71.05781,"name":"Jobulous","category_code":"web","number_of_employees":6,"founded_year":2008}
{"city":"","country_code":"USA","latitude":37.4145294,"longitude":-122.1425934,"name":"HotPrints","category_code":"network_hosting","number_of_employees":7,"founded_year":2008}
{"city":"Richmond","country_code":"USA","latitude":37.5353256,"longitude":-77.4338163,"name":"Collexpo","category_code":"ecommerce","number_of_employees":4,"founded_year":2008}
{"city":"V\u00c3\u00a4nersborg","country_code":"SWE","latitude":58.3832154,"longitude":12.3253048,"name":"Fredlund Media","category_code":"consulting","number_of_employees":1,"founded_year":2008}
{"city":"Toronto","country_code":"CAN","latitude":43.670233,"longitude":-79.386755,"name":"Wisevid","category_code":"games_video","number_of_employees":10,"founded_year":2008}
{"city":"Holland","country_code":"USA","latitude":42.7904907,"longitude":-86.0667227,"name":"Zammr","category_code":"network_hosting","number_of_employees":1,"founded_year":2009}
{"city":"London","country_code":"GBR","latitude":51.5196135,"longitude":-0.1020265,"name":"Shutl","category_code":"ecommerce","number_of_employees":10,"founded_year":2009}
{"city":"Madrid","country_code":"ESP","latitude":40.6070897,"longitude":-3.6912754,"name":"Zankyou","category_code":"web","number_of_employees":15,"founded_year":2008}
{"city":"Levallois Perret","country_code":"FRA","latitude":48.8921396,"longitude":2.2847419,"name":"Zankyou","category_code":"web","number_of_employees":15,"founded_year":2008}
{"city":"Heeze","country_code":"NLD","latitude":51.3673409,"longitude":5.5858466,"name":"Interacto","category_code":"web","number_of_employees":2,"founded_year":2009}
{"city":"Marietta","country_code":"USA","latitude":34.013247,"longitude":-84.495636,"name":"Asurrent","category_code":"web","number_of_employees":3,"founded_year":2009}
{"city":"San Francisco","country_code":"USA","latitude":38.88521,"longitude":-76.998641,"name":"Socialize","category_code":"mobile","number_of_employees":10,"founded_year":2008}
{"city":"Brooktondale","country_code":"USA","latitude":42.362886,"longitude":-76.356869,"name":"Ontology2","category_code":"web","number_of_employees":2,"founded_year":2009}
{"city":"New York City","country_code":"USA","latitude":40.727763,"longitude":-73.976169,"name":"Music For Busy People","category_code":"games_video","number_of_employees":3,"founded_year":2009}
{"city":"Houston","country_code":"USA","latitude":29.745861,"longitude":-95.457796,"name":"TagMyEvent","category_code":"web","number_of_employees":10,"founded_year":2008}
{"city":"Figueres, Girona","country_code":"ESP","latitude":42.2674977,"longitude":2.9608395,"name":"alteregoweb","category_code":"web","number_of_employees":1,"founded_year":2009}
{"city":"Noida","country_code":"IND","latitude":28.5846875,"longitude":77.3159296,"name":"TalentEquity Solutions","category_code":"web","number_of_employees":5,"founded_year":2008}
{"city":"San Jose","country_code":"USA","latitude":37.3218356,"longitude":-121.9478049,"name":"AdventureDrop","category_code":"web","number_of_employees":6,"founded_year":2008}
{"city":"North Vancouver","country_code":"CAN","latitude":49.2792347,"longitude":-123.1172422,"name":"Black Ninja Software","category_code":"software","number_of_employees":4,"founded_year":2008}
{"city":"Flushing","country_code":"USA","latitude":40.7609224,"longitude":-73.8304895,"name":"CollectiveSys","category_code":"web","number_of_employees":1,"founded_year":2008}
{"city":"Chennai","country_code":"IND","latitude":13.0292742,"longitude":80.2481532,"name":"JobsByRef","category_code":"web","number_of_employees":10,"founded_year":2008}
{"city":"London","country_code":"GBR","latitude":51.4918635,"longitude":-0.1886272,"name":"AfterWorkDeals","category_code":"mobile","number_of_employees":1,"founded_year":2008}
{"city":"Toronto","country_code":"CAN","latitude":43.7877308,"longitude":-79.4677629,"name":"Tigersites","category_code":"network_hosting","number_of_employees":5,"founded_year":2008}
{"city":"Sarasota","country_code":"USA","latitude":27.4081935,"longitude":-82.5294065,"name":"kinDragon","category_code":"software","number_of_employees":1,"founded_year":2010}
{"city":"West Hollywood","country_code":"USA","latitude":34.087177,"longitude":-118.3807785,"name":"Shop N Chill","category_code":"ecommerce","number_of_employees":12,"founded_year":2008}
{"city":"Toronto","country_code":"CAN","latitude":43.6422601,"longitude":-79.3748894,"name":"Shop N Chill","category_code":"ecommerce","number_of_employees":12,"founded_year":2008}
{"city":"Miami Beach","country_code":"USA","latitude":25.8636626,"longitude":-80.1210889,"name":"SEO Komodo","category_code":"consulting","number_of_employees":2,"founded_year":2008}
{"city":"Lexington","country_code":"USA","latitude":38.0488113,"longitude":-84.5091102,"name":"FlowMingle","category_code":"web","number_of_employees":3,"founded_year":2008}
{"city":"Ann Arbor","country_code":"USA","latitude":42.277416,"longitude":-83.733276,"name":"Mobiata","category_code":"software","number_of_employees":14,"founded_year":2008}
{"city":"Tucson","country_code":"USA","latitude":32.222156,"longitude":-110.825525,"name":"ArtFire","category_code":"ecommerce","number_of_employees":15,"founded_year":2008}
{"city":"London","country_code":"GBR","latitude":51.5001524,"longitude":-0.1262362,"name":"VouChaCha","category_code":"mobile","number_of_employees":15,"founded_year":2009}
{"city":"St. Louis","country_code":"USA","latitude":38.675833,"longitude":-90.482766,"name":"CanvasGrafix","category_code":"web","number_of_employees":2,"founded_year":2009}
{"city":"Amsterdam","country_code":"NLD","latitude":52.3722556,"longitude":4.8864897,"name":"Mapplr","category_code":"software","number_of_employees":2,"founded_year":2008}
{"city":"New Boston","country_code":"USA","latitude":42.942287,"longitude":-71.672268,"name":"EchoCurrent Software","category_code":"software","number_of_employees":2,"founded_year":2008}
{"city":"Wall","country_code":"USA","latitude":40.154593,"longitude":-74.0884914,"name":"PicsOrLinks","category_code":"network_hosting","number_of_employees":3,"founded_year":2008}
{"city":"Watford","country_code":"GBR","latitude":51.6548556,"longitude":-0.3982031,"name":"ShopCorn UK","category_code":"ecommerce","number_of_employees":10,"founded_year":2008}
{"city":"Kelowna","country_code":"CAN","latitude":49.8900432,"longitude":-119.4583914,"name":"StickyPages","category_code":"consulting","number_of_employees":3,"founded_year":2008}
{"city":"Gda\u00c5\u201esk","country_code":"POL","latitude":54.3553402,"longitude":18.593954,"name":"Contails","category_code":"mobile","number_of_employees":1,"founded_year":2008}
{"city":"Santa Monica","country_code":"USA","latitude":34.0324612,"longitude":-118.4818277,"name":"Veebox","category_code":"web","number_of_employees":3,"founded_year":2008}
{"city":"Santa Barbara","country_code":"USA","latitude":34.414177,"longitude":-119.688565,"name":"ZOS Communications","category_code":"mobile","number_of_employees":15,"founded_year":2008}
{"city":"London","country_code":"GBR","latitude":51.519772,"longitude":-0.1597092,"name":"Neutron Creations","category_code":"consulting","number_of_employees":2,"founded_year":2008}
{"city":"Lincoln","country_code":"USA","latitude":40.802858,"longitude":-96.694751,"name":"Reflect7","category_code":"mobile","number_of_employees":3,"founded_year":2009}
{"city":"London","country_code":"GBR","latitude":51.6214201,"longitude":-0.2547278,"name":"LaunchMind","category_code":"web","number_of_employees":3,"founded_year":2009}
{"city":"Berlin","country_code":"DEU","latitude":51.4523335,"longitude":7.3554365,"name":"studdex","category_code":"web","number_of_employees":10,"founded_year":2008}
{"city":"Glen Cove","country_code":"USA","latitude":42.3756409,"longitude":-72.5196907,"name":"Tinychat","category_code":"web","number_of_employees":5,"founded_year":2009}
{"city":"Menlo Park","country_code":"USA","latitude":37.4513629,"longitude":-122.1842112,"name":"Transifex","category_code":"software","number_of_employees":12,"founded_year":2009}
{"city":"Palo Alto","country_code":"USA","latitude":37.4441726,"longitude":-122.1632941,"name":"iCelebrate","category_code":"web","number_of_employees":3,"founded_year":2008}
{"city":"Toronto","country_code":"CAN","latitude":43.6366465,"longitude":-79.4264794,"name":"Hireglyphics","category_code":"software","number_of_employees":7,"founded_year":2008}
{"city":"Cary","country_code":"USA","latitude":35.820177,"longitude":-78.792841,"name":"Wine by the Bar","category_code":"software","number_of_employees":1,"founded_year":2008}
{"city":"Ho Chi Minh City","country_code":"VNM","latitude":10.8024304,"longitude":106.6412027,"name":"VEO Media Vietnam","category_code":"consulting","number_of_employees":10,"founded_year":2008}
{"city":"Palo Alto","country_code":"USA","latitude":37.443,"longitude":-122.159291,"name":"Purebred Network","category_code":"web","number_of_employees":3,"founded_year":2008}
{"city":"Durango","country_code":"USA","latitude":37.2859182,"longitude":-107.8792679,"name":"Interlaced Systems","category_code":"web","number_of_employees":6,"founded_year":2008}
{"city":"Malvern","country_code":"USA","latitude":40.054547,"longitude":-75.515376,"name":"Frontier Service Design","category_code":"consulting","number_of_employees":6,"founded_year":2008}
{"city":"Helsinki","country_code":"FIN","latitude":60.1659819,"longitude":24.9438568,"name":"Frosmo","category_code":"ecommerce","number_of_employees":15,"founded_year":2008}
{"city":"","country_code":"FIN","latitude":60.1659819,"longitude":24.9438568,"name":"Dodreams","category_code":"games_video","number_of_employees":6,"founded_year":2008}
{"city":"New York","country_code":"USA","latitude":40.7297485,"longitude":-73.9867361,"name":"SwitchGames","category_code":"games_video","number_of_employees":3,"founded_year":2008}
{"city":"Park Ridge","country_code":"USA","latitude":34.748624,"longitude":-82.034885,"name":"AIL CarbonTicker","category_code":"cleantech","number_of_employees":5,"founded_year":2008}
{"city":"Chicago","country_code":"USA","latitude":41.879535,"longitude":-87.624333,"name":"Coupon Tweet","category_code":"web","number_of_employees":12,"founded_year":2008}
{"city":"San Francisco","country_code":"USA","latitude":37.775196,"longitude":-122.419204,"name":"Fliggo","category_code":"games_video","number_of_employees":2,"founded_year":2012}
{"city":"Tokyo","country_code":"JPN","latitude":37.443,"longitude":-122.159291,"name":"GreenITers","category_code":"cleantech","number_of_employees":4,"founded_year":2009}
{"city":"Munich","country_code":"DEU","latitude":52.5375697,"longitude":13.3740493,"name":"SocialCom","category_code":"ecommerce","number_of_employees":5,"founded_year":2008}
{"city":"Fullerton","country_code":"USA","latitude":29.717881,"longitude":-95.452352,"name":"SeatKarma","category_code":"web","number_of_employees":2,"founded_year":2008}
{"city":"IDYLLWILD","country_code":"USA","latitude":33.7836802,"longitude":-116.7732162,"name":"howsimple","category_code":"web","number_of_employees":12,"founded_year":2008}
{"city":"KOCHI, KERALA","country_code":"IND","latitude":9.9396253,"longitude":76.2594981,"name":"PebbleForge","category_code":"software","number_of_employees":4,"founded_year":2009}
{"city":"College Place","country_code":"USA","latitude":46.0439,"longitude":-118.378229,"name":"TwitterCorp","category_code":"web","number_of_employees":1,"founded_year":2009}
{"city":"melville","country_code":"USA","latitude":40.803329,"longitude":-73.410677,"name":"Parents R People","category_code":"network_hosting","number_of_employees":2,"founded_year":2008}
{"city":"Boston","country_code":"USA","latitude":42.3983662,"longitude":-71.0213788,"name":"Action Sports Branding","category_code":"ecommerce","number_of_employees":3,"founded_year":2009}
{"city":"Barcelona","country_code":"ESP","latitude":41.4322413,"longitude":2.163444,"name":"Mobiquus","category_code":"mobile","number_of_employees":3,"founded_year":2008}
{"city":"Seattle","country_code":"USA","latitude":47.6257402,"longitude":-122.3581623,"name":"Kashless","category_code":"ecommerce","number_of_employees":8,"founded_year":2008}
{"city":"Kiev","country_code":"UKR","latitude":50.453629,"longitude":30.503828,"name":"Scrobl","category_code":"software","number_of_employees":1,"founded_year":2008}
{"city":"Auburn","country_code":"USA","latitude":38.892991,"longitude":-121.076418,"name":"KidSwirl","category_code":"web","number_of_employees":2,"founded_year":2009}
{"city":"San Francisco","country_code":"USA","latitude":37.7983181,"longitude":-122.4000032,"name":"The Vertical Action Group","category_code":"consulting","number_of_employees":10,"founded_year":2009}
{"city":"Sunnyvale","country_code":"USA","latitude":37.369195,"longitude":-122.036849,"name":"BrandFolium Corporation","category_code":"web","number_of_employees":2,"founded_year":2008}
{"city":"New York","country_code":"USA","latitude":40.756054,"longitude":-73.986951,"name":"Wee Web","category_code":"web","number_of_employees":5,"founded_year":2008}
{"city":"London","country_code":"GBR","latitude":51.5001524,"longitude":-0.1262362,"name":"rent2friend","category_code":"web","number_of_employees":1,"founded_year":2009}
{"city":"Kirkland","country_code":"USA","latitude":47.723138,"longitude":-122.2090504,"name":"Dinsk","category_code":"software","number_of_employees":3,"founded_year":2008}
{"city":"Paris","country_code":"FRA","latitude":48.7647262,"longitude":2.2890885,"name":"Moodstocks","category_code":"mobile","number_of_employees":5,"founded_year":2008}
{"city":"Liverpool","country_code":"GBR","latitude":53.4202938,"longitude":-3.0092343,"name":"recombitex","category_code":"biotech","number_of_employees":1,"founded_year":2008}
{"city":"Cambridge","country_code":"USA","latitude":42.362856,"longitude":-71.083762,"name":"VitalLock","category_code":"web","number_of_employees":4,"founded_year":2009}
{"city":"Manchester","country_code":"GBR","latitude":53.5195474,"longitude":-2.2550847,"name":"Sentry Parental Controls","category_code":"software","number_of_employees":5,"founded_year":2008}
{"city":"Indian Harbour Beach","country_code":"USA","latitude":28.1524632,"longitude":-80.5883964,"name":"OBE Pro","category_code":"software","number_of_employees":4,"founded_year":2009}
{"city":"New York","country_code":"USA","latitude":40.723351,"longitude":-74.008767,"name":"Proper Cloth","category_code":"ecommerce","number_of_employees":1,"founded_year":2008}
{"city":"Lyon","country_code":"FRA","latitude":45.767299,"longitude":4.8343287,"name":"Gifteer","category_code":"web","number_of_employees":4,"founded_year":2008}
{"city":"Thane West","country_code":"IND","latitude":19.2025218,"longitude":72.9637728,"name":"Scopial Fashions","category_code":"web","number_of_employees":4,"founded_year":2008}
{"city":"Manitou Springs","country_code":"USA","latitude":38.860989,"longitude":-104.890317,"name":"Veridictus Associates","category_code":"consulting","number_of_employees":1,"founded_year":2008}
{"city":"Venice","country_code":"USA","latitude":33.989029,"longitude":-118.462421,"name":"Cuteness Pet Community","category_code":"web","number_of_employees":2,"founded_year":2009}
{"city":"Weinheim","country_code":"DEU","latitude":49.5507557,"longitude":8.6759098,"name":"yiid","category_code":"web","number_of_employees":9,"founded_year":2009}
{"city":"Leeds","country_code":"GBR","latitude":53.687153,"longitude":-1.524702,"name":"Pitchero","category_code":"web","number_of_employees":5,"founded_year":2008}
{"city":"Vancouver","country_code":"CAN","latitude":49.278995,"longitude":-123.1333467,"name":"Habidoo","category_code":"web","number_of_employees":3,"founded_year":2008}
{"city":"Vienna","country_code":"USA","latitude":38.912141,"longitude":-77.222355,"name":"StartUpHire","category_code":"web","number_of_employees":5,"founded_year":2008}
{"city":"Cambridge","country_code":"GBR","latitude":52.2025441,"longitude":0.1312368,"name":"JoggingBuddy","category_code":"web","number_of_employees":3,"founded_year":2008}
{"city":"Brussels","country_code":"BEL","latitude":50.8076447,"longitude":4.3358472,"name":"The Magnetic Think","category_code":"web","number_of_employees":2,"founded_year":2008}
{"city":"Philadelphia","country_code":"USA","latitude":39.9511019,"longitude":-75.197882,"name":"ChronoWake","category_code":"biotech","number_of_employees":10,"founded_year":2008}
{"city":"Paris","country_code":"FRA","latitude":48.8775197,"longitude":2.334266,"name":"userADgents","category_code":"mobile","number_of_employees":15,"founded_year":2008}
{"city":"Kirkkonummi","country_code":"FIN","latitude":60.123399,"longitude":24.4280745,"name":"Fotomina","category_code":"web","number_of_employees":4,"founded_year":2009}
{"city":"Edmonton","country_code":"CAN","latitude":53.540941,"longitude":-113.493698,"name":"CMS Critic","category_code":"web","number_of_employees":4,"founded_year":2008}
{"city":"Hollywood","country_code":"USA","latitude":34.0909811,"longitude":-118.325739,"name":"Setster","category_code":"software","number_of_employees":3,"founded_year":2009}
{"city":"Renens","country_code":"CHE","latitude":46.5389248,"longitude":6.5877024,"name":"Arimaz","category_code":"games_video","number_of_employees":5,"founded_year":2008}
{"city":"Bia\u00c5\u201aystok","country_code":"POL","latitude":53.1371088,"longitude":23.1540917,"name":"AmberBit","category_code":"software","number_of_employees":5,"founded_year":2008}
{"city":"Portland","country_code":"USA","latitude":45.519475,"longitude":-122.675255,"name":"ProtoShare","category_code":"software","number_of_employees":15,"founded_year":2008}
{"city":"New York","country_code":"USA","latitude":40.7078343,"longitude":-74.0136605,"name":"GameChanger Media","category_code":"software","number_of_employees":20,"founded_year":2009}
{"city":"New York","country_code":"USA","latitude":40.744618,"longitude":-73.987764,"name":"IntheGlo","category_code":"ecommerce","number_of_employees":5,"founded_year":2008}
{"city":"","country_code":"USA","latitude":33.884218,"longitude":-84.338429,"name":"Ashe Media Holdings","category_code":"web","number_of_employees":5,"founded_year":2008}
{"city":"Minneapolis","country_code":"USA","latitude":44.977482,"longitude":-93.264351,"name":"SwapBeats","category_code":"software","number_of_employees":12,"founded_year":2008}
{"city":"Hamburg","country_code":"DEU","latitude":53.5736401,"longitude":10.0184565,"name":"Gate 53|10 Technologies","category_code":"web","number_of_employees":4,"founded_year":2009}
{"city":"Baltimore","country_code":"USA","latitude":39.3731969,"longitude":-76.6924627,"name":"Ravant","category_code":"ecommerce","number_of_employees":2,"founded_year":2008}
{"city":"Los Angeles","country_code":"USA","latitude":34.1012181,"longitude":-118.325739,"name":"Ranker","category_code":"web","number_of_employees":12,"founded_year":2008}
{"city":"Boston","country_code":"USA","latitude":42.3503375,"longitude":-71.0605985,"name":"Touch Ahead Software","category_code":"software","number_of_employees":10,"founded_year":2008}
{"city":"Santa Monica","country_code":"USA","latitude":34.007112,"longitude":-118.489748,"name":"Tongal","category_code":"web","number_of_employees":8,"founded_year":2009}
{"city":"Oslo","country_code":"NOR","latitude":59.9137459,"longitude":10.7963809,"name":"Neovada","category_code":"web","number_of_employees":16,"founded_year":2008}
{"city":"NJ","country_code":"USA","latitude":40.827627,"longitude":-74.10081,"name":"ShopaService","category_code":"web","number_of_employees":15,"founded_year":2008}
{"city":"Paris","country_code":"FRA","latitude":48.8557544,"longitude":2.3808328,"name":"Mediastroika","category_code":"games_video","number_of_employees":3,"founded_year":2008}
{"city":"Chicago","country_code":"USA","latitude":41.8719878,"longitude":-87.6416957,"name":"iPlanmaker","category_code":"software","number_of_employees":6,"founded_year":2008}
{"city":"Fort Lauderdale","country_code":"USA","latitude":26.2032036,"longitude":-80.1510951,"name":"Link Trigger","category_code":"software","number_of_employees":7,"founded_year":2008}
{"city":"Menlo Park","country_code":"USA","latitude":37.4484914,"longitude":-122.1802812,"name":"Blog Traffic Exchange","category_code":"web","number_of_employees":1,"founded_year":2009}
{"city":"Oxnard","country_code":"USA","latitude":34.230406,"longitude":-119.186443,"name":"LAGrapeVine","category_code":"web","number_of_employees":1,"founded_year":2008}
{"city":"New York","country_code":"USA","latitude":40.7615818,"longitude":-73.970624,"name":"Americanlisted","category_code":"ecommerce","number_of_employees":15,"founded_year":2008}
{"city":"Lisboa","country_code":"PRT","latitude":38.703497,"longitude":-9.178734,"name":"Think Orange","category_code":"software","number_of_employees":4,"founded_year":2008}
{"city":"dallas","country_code":"USA","latitude":32.920073,"longitude":-96.740444,"name":"crush tweet","category_code":"software","number_of_employees":1,"founded_year":2009}
{"city":"San Francisco","country_code":"USA","latitude":37.7717185,"longitude":-122.4438929,"name":"CleanTechies","category_code":"cleantech","number_of_employees":3,"founded_year":2008}
{"city":"South Melbourne","country_code":"AUS","latitude":-37.8361,"longitude":144.9563945,"name":"Loop11","category_code":"software","number_of_employees":5,"founded_year":2008}
{"city":"Rosanna","country_code":"AUS","latitude":-37.742893,"longitude":145.065044,"name":"Trigora","category_code":"web","number_of_employees":7,"founded_year":2009}
{"city":"London","country_code":"GBR","latitude":51.5382894,"longitude":-0.2023958,"name":"upad","category_code":"web","number_of_employees":8,"founded_year":2008}
{"city":"","country_code":"USA","latitude":37.7581148,"longitude":-122.4184108,"name":"RipCloud","category_code":"network_hosting","number_of_employees":2,"founded_year":2012}
{"city":"Suresnes","country_code":"FRA","latitude":48.8747429,"longitude":2.2308656,"name":"Cleantech Republic","category_code":"cleantech","number_of_employees":6,"founded_year":2008}
{"city":"Leiria","country_code":"PRT","latitude":39.7366963,"longitude":-8.7985658,"name":"Weebiz","category_code":"ecommerce","number_of_employees":2,"founded_year":2009}
{"city":"London","country_code":"GBR","latitude":51.5206682,"longitude":-0.1852079,"name":"TV Pixie","category_code":"web","number_of_employees":2,"founded_year":2009}
{"city":"London","country_code":"GBR","latitude":51.5163382,"longitude":-0.0828173,"name":"Swiffen","category_code":"games_video","number_of_employees":4,"founded_year":2008}
{"city":"Cambridge","country_code":"GBR","latitude":52.2025441,"longitude":0.1312368,"name":"Broadersheet","category_code":"web","number_of_employees":2,"founded_year":2009}
{"city":"San Jose","country_code":"USA","latitude":37.39458,"longitude":-121.928393,"name":"Smallaa","category_code":"web","number_of_employees":5,"founded_year":2008}
{"city":"Moscow","country_code":"RUS","latitude":55.7794043,"longitude":37.6899674,"name":"CineSoft","category_code":"software","number_of_employees":5,"founded_year":2009}
{"city":"Budapest","country_code":"HUN","latitude":47.4953663,"longitude":19.0284923,"name":"Joobili","category_code":"web","number_of_employees":2,"founded_year":2008}
{"city":"","country_code":"GBR","latitude":51.421686,"longitude":-0.1419622,"name":"Restox","category_code":"web","number_of_employees":3,"founded_year":2008}
{"city":"El Dorado Hills","country_code":"USA","latitude":38.709006,"longitude":-121.084432,"name":"BoardEvals","category_code":"software","number_of_employees":5,"founded_year":2008}
{"city":"Paris 10\u00c3\u00a8me","country_code":"FRA","latitude":48.8524775,"longitude":2.3660117,"name":"Antelink","category_code":"software","number_of_employees":10,"founded_year":2009}
{"city":"Sint-Denijs-Westrem","country_code":"BEL","latitude":51.0198642,"longitude":3.6820756,"name":"Rovingbird","category_code":"mobile","number_of_employees":16,"founded_year":2008}
{"city":"london","country_code":"GBR","latitude":51.5001524,"longitude":-0.1262362,"name":"watercompare","category_code":"web","number_of_employees":2,"founded_year":2008}
{"city":"Berlin","country_code":"DEU","latitude":53.5849353,"longitude":10.1251434,"name":"Jakun Media","category_code":"games_video","number_of_employees":4,"founded_year":2008}
{"city":"Paris","country_code":"FRA","latitude":48.8952712,"longitude":2.4476331,"name":"WEEZEVENT","category_code":"ecommerce","number_of_employees":20,"founded_year":2008}
{"city":"Eagle Heights","country_code":"AUS","latitude":-27.917488,"longitude":153.2075297,"name":"Jumbilo","category_code":"software","number_of_employees":5,"founded_year":2008}
{"city":"Lyndhurst","country_code":"USA","latitude":40.806539,"longitude":-74.111825,"name":"Zinkk","category_code":"software","number_of_employees":5,"founded_year":2008}
{"city":"Oshkosh","country_code":"USA","latitude":44.022448,"longitude":-88.546142,"name":"Handbags4Hunger","category_code":"ecommerce","number_of_employees":1,"founded_year":2008}
{"city":"Dallas","country_code":"USA","latitude":32.781078,"longitude":-96.797111,"name":"THE SYSTEM ARCHITECT","category_code":"consulting","number_of_employees":15,"founded_year":2008}
{"city":"Boulogne","country_code":"FRA","latitude":48.8424529,"longitude":2.2430452,"name":"Fresh !","category_code":"consulting","number_of_employees":9,"founded_year":2008}
{"city":"Copenhagen","country_code":"DNK","latitude":55.6975098,"longitude":12.5401817,"name":"Aptocore","category_code":"games_video","number_of_employees":7,"founded_year":2008}
{"city":"Ann Arbor","country_code":"USA","latitude":42.281569,"longitude":-83.813914,"name":"Compel Interaction","category_code":"consulting","number_of_employees":10,"founded_year":2009}
{"city":"Chicago","country_code":"USA","latitude":41.875026,"longitude":-87.628933,"name":"Compel Interaction","category_code":"consulting","number_of_employees":10,"founded_year":2009}
{"city":"Traverse City","country_code":"USA","latitude":44.7871116,"longitude":-85.6378062,"name":"Compel Interaction","category_code":"consulting","number_of_employees":10,"founded_year":2009}
{"city":"Boulder","country_code":"USA","latitude":40.013336,"longitude":-105.270527,"name":"Knag Enterprises","category_code":"software","number_of_employees":1,"founded_year":2008}
{"city":"London","country_code":"GBR","latitude":51.5137747,"longitude":-0.1459893,"name":"Tweenjo","category_code":"web","number_of_employees":2,"founded_year":2009}
{"city":"Mountain View","country_code":"USA","latitude":37.400465,"longitude":-122.073003,"name":"psychiatryRounds","category_code":"web","number_of_employees":10,"founded_year":2009}
{"city":"San Francisco","country_code":"USA","latitude":37.772323,"longitude":-122.214897,"name":"Shopseen","category_code":"ecommerce","number_of_employees":2,"founded_year":2013}
{"city":"Los Angeles","country_code":"USA","latitude":34.1036353,"longitude":-118.293316,"name":"Silvatar Media","category_code":"games_video","number_of_employees":4,"founded_year":2008}
{"city":"Graz","country_code":"AUT","latitude":47.0743531,"longitude":15.454803,"name":"Wijng","category_code":"web","number_of_employees":3,"founded_year":2008}
{"city":"Herndon","country_code":"USA","latitude":38.9548155,"longitude":-77.388919,"name":"MindReign","category_code":"ecommerce","number_of_employees":12,"founded_year":2008}
{"city":"","country_code":"USA","latitude":33.903022,"longitude":-118.3864712,"name":"Lunch","category_code":"web","number_of_employees":12,"founded_year":2008}
{"city":"London","country_code":"GBR","latitude":51.5603951,"longitude":-0.1365725,"name":"Space Spare","category_code":"web","number_of_employees":2,"founded_year":2009}
{"city":"San Francisco","country_code":"USA","latitude":37.772287,"longitude":-122.42044,"name":"myGreek","category_code":"web","number_of_employees":10,"founded_year":2008}
{"city":"Berlin","country_code":"DEU","latitude":52.5296736,"longitude":13.6281888,"name":"Webteilchen","category_code":"web","number_of_employees":2,"founded_year":2009}
{"city":"Dallas","country_code":"USA","latitude":32.8270045,"longitude":-96.8432224,"name":"Gameleaper","category_code":"games_video","number_of_employees":1,"founded_year":2009}
{"city":"Philadelphia","country_code":"USA","latitude":39.951639,"longitude":-75.163808,"name":"Alkali Media","category_code":"mobile","number_of_employees":3,"founded_year":2008}
{"city":"New York","country_code":"USA","latitude":40.7277434,"longitude":-73.9893359,"name":"TrialX","category_code":"web","number_of_employees":5,"founded_year":2008}
{"city":"Menlo Park","country_code":"USA","latitude":37.4484914,"longitude":-122.1802812,"name":"Factery","category_code":"web","number_of_employees":2,"founded_year":2009}
{"city":"Berlin","country_code":"DEU","latitude":52.5189904,"longitude":13.4663753,"name":"quoobs","category_code":"web","number_of_employees":3,"founded_year":2009}
{"city":"Plymouth","country_code":"USA","latitude":45.040276,"longitude":-93.442929,"name":"TikiWade","category_code":"web","number_of_employees":2,"founded_year":2008}
{"city":"Columbia","country_code":"USA","latitude":34.019114,"longitude":-81.004871,"name":"Hayen Company","category_code":"games_video","number_of_employees":1,"founded_year":2011}
{"city":"Copenhagen","country_code":"DNK","latitude":55.6770321,"longitude":12.5751278,"name":"1calendar","category_code":"software","number_of_employees":8,"founded_year":2009}
{"city":"Copenhagen","country_code":"DNK","latitude":55.6802318,"longitude":12.524884,"name":"1calendar","category_code":"software","number_of_employees":8,"founded_year":2009}
{"city":"San Francisco","country_code":"USA","latitude":37.775087,"longitude":-122.415199,"name":"Bamboudesign","category_code":"mobile","number_of_employees":2,"founded_year":2008}
{"city":"Palo Alto","country_code":"USA","latitude":37.444531,"longitude":-122.163352,"name":"Milo","category_code":"web","number_of_employees":20,"founded_year":2008}
{"city":"Louvain-la-Neuve","country_code":"BEL","latitude":50.6713314,"longitude":4.6102492,"name":"Belighted","category_code":"web","number_of_employees":13,"founded_year":2008}
{"city":"Chicago","country_code":"USA","latitude":41.8819283,"longitude":-87.6445473,"name":"YesFreelance","category_code":"ecommerce","number_of_employees":5,"founded_year":2009}
{"city":"Portland","country_code":"USA","latitude":45.488419,"longitude":-122.642156,"name":"BIT TV","category_code":"games_video","number_of_employees":10,"founded_year":2009}
{"city":"Vienna","country_code":"AUT","latitude":48.2114213,"longitude":16.3736319,"name":"all140","category_code":"web","number_of_employees":4,"founded_year":2009}
{"city":"Kaiserslautern","country_code":"DEU","latitude":49.439304,"longitude":7.771808,"name":"kinkon","category_code":"web","number_of_employees":10,"founded_year":2008}
{"city":"Sarasota","country_code":"USA","latitude":27.3858,"longitude":-82.423,"name":"AlphaPoint Technology","category_code":"software","number_of_employees":10,"founded_year":2009}
{"city":"Bhopal","country_code":"IND","latitude":23.2771102,"longitude":77.4589032,"name":"HariOmTechnologies","category_code":"software","number_of_employees":20,"founded_year":2008}
{"city":"Menlo Park","country_code":"USA","latitude":37.4484914,"longitude":-122.1802812,"name":"Buildify","category_code":"consulting","number_of_employees":10,"founded_year":2008}
{"city":"Utrecht","country_code":"NLD","latitude":52.0848526,"longitude":5.1682449,"name":"Distimo","category_code":"mobile","number_of_employees":17,"founded_year":2009}
{"city":"Marseille","country_code":"FRA","latitude":43.3075798,"longitude":5.3873453,"name":"Tempolib","category_code":"mobile","number_of_employees":4,"founded_year":2009}
{"city":"Seattle","country_code":"USA","latitude":47.6042792,"longitude":-122.3374372,"name":"GroupieGuide","category_code":"web","number_of_employees":4,"founded_year":2008}
{"city":"Stockholm","country_code":"SWE","latitude":59.3494046,"longitude":18.073094,"name":"Bloo","category_code":"mobile","number_of_employees":2,"founded_year":2008}
{"city":"","country_code":"IND","latitude":13.060416,"longitude":80.249634,"name":"BigSpire Technologies","category_code":"ecommerce","number_of_employees":5,"founded_year":2009}
{"city":"Avondale Estates","country_code":"USA","latitude":33.780472,"longitude":-84.256139,"name":"Krumlr","category_code":"web","number_of_employees":1,"founded_year":2008}
{"city":"Seattle","country_code":"USA","latitude":47.6447802,"longitude":-122.325878,"name":"AppStoreHQ","category_code":"mobile","number_of_employees":3,"founded_year":2009}
{"city":"Tulsa","country_code":"USA","latitude":36.133354,"longitude":-95.975663,"name":"PaperSports","category_code":"web","number_of_employees":2,"founded_year":2008}
{"city":"Bournemouth","country_code":"GBR","latitude":50.732295,"longitude":-1.818289,"name":"Pressitt","category_code":"network_hosting","number_of_employees":5,"founded_year":2009}
{"city":"Dublin","country_code":"IRL","latitude":53.344104,"longitude":-6.2674937,"name":"Worky","category_code":"web","number_of_employees":16,"founded_year":2008}
{"city":"Washington","country_code":"USA","latitude":38.93097,"longitude":-77.036972,"name":"Varsity Outreach","category_code":"web","number_of_employees":4,"founded_year":2008}
{"city":"Ellensburg","country_code":"USA","latitude":45.7968414,"longitude":-122.6931439,"name":"Graticle","category_code":"design","number_of_employees":1,"founded_year":2009}
{"city":"Oulu","country_code":"FIN","latitude":65.0127875,"longitude":25.470902,"name":"Pikkoo","category_code":"mobile","number_of_employees":5,"founded_year":2009}
{"city":"Levallois-Perret","country_code":"FRA","latitude":48.8964115,"longitude":2.2863338,"name":"OCTALINE","category_code":"web","number_of_employees":2,"founded_year":2009}
{"city":"London","country_code":"GBR","latitude":39.39615,"longitude":22.76303,"name":"Owngig","category_code":"games_video","number_of_employees":8,"founded_year":2008}
{"city":"Columbia","country_code":"USA","latitude":38.9569894,"longitude":-92.3227556,"name":"Book'd","category_code":"software","number_of_employees":1,"founded_year":2009}
{"city":"Augsburg","country_code":"DEU","latitude":48.3400291,"longitude":10.9059804,"name":"makandra","category_code":"software","number_of_employees":8,"founded_year":2009}
{"city":"North Hollywood","country_code":"USA","latitude":34.1658804,"longitude":-118.3637264,"name":"Dance Channel TV, Inc","category_code":"games_video","number_of_employees":5,"founded_year":2008}
{"city":"Chicago","country_code":"USA","latitude":41.9205483,"longitude":-87.6531805,"name":"Statugle","category_code":"web","number_of_employees":1,"founded_year":2009}
{"city":"Sao Paulo","country_code":"BRA","latitude":-23.5815208,"longitude":-46.6773686,"name":"DP7 Digital","category_code":"software","number_of_employees":6,"founded_year":2009}
{"city":"Florianopolis","country_code":"BRA","latitude":-27.5995476,"longitude":-48.5483418,"name":"DP7 Digital","category_code":"software","number_of_employees":6,"founded_year":2009}
{"city":"Portland","country_code":"USA","latitude":45.619318,"longitude":-122.544532,"name":"Avatron Software","category_code":"mobile","number_of_employees":14,"founded_year":2008}
{"city":"San Francisco","country_code":"USA","latitude":37.7983181,"longitude":-122.4000032,"name":"AppNinjas","category_code":"mobile","number_of_employees":1,"founded_year":2009}
{"city":"NEW YORK","country_code":"USA","latitude":40.7395876,"longitude":-73.9928423,"name":"FanFeedr","category_code":"web","number_of_employees":5,"founded_year":2008}
{"city":"Stockholm","country_code":"SWE","latitude":59.3334808,"longitude":18.0813105,"name":"JamesList","category_code":"ecommerce","number_of_employees":5,"founded_year":2008}
{"city":"Marbella","country_code":"ESP","latitude":36.5099367,"longitude":-4.8863523,"name":"JamesList","category_code":"ecommerce","number_of_employees":5,"founded_year":2008}
{"city":"Gdynia","country_code":"POL","latitude":54.520135,"longitude":18.5416342,"name":"JustProto","category_code":"software","number_of_employees":11,"founded_year":2009}
{"city":"Hong Kong","country_code":"HKG","latitude":22.334148,"longitude":114.150564,"name":"NecesCity","category_code":"web","number_of_employees":4,"founded_year":2008}
{"city":"Mar del Plata","country_code":"ARG","latitude":-37.9924155,"longitude":-57.5538238,"name":"Fan","category_code":"consulting","number_of_employees":10,"founded_year":2009}
{"city":"Coconut Creek","country_code":"USA","latitude":26.280346,"longitude":-80.186473,"name":"ToolzDO","category_code":"web","number_of_employees":1,"founded_year":2009}
{"city":"Birmingham","country_code":"USA","latitude":33.476946,"longitude":-86.7935892,"name":"ReSolutions LLC","category_code":"consulting","number_of_employees":2,"founded_year":2008}
{"city":"Arlington","country_code":"USA","latitude":38.881717,"longitude":-77.089398,"name":"Social Collective","category_code":"web","number_of_employees":3,"founded_year":2009}
{"city":"Woobridge","country_code":"USA","latitude":40.555566,"longitude":-74.283346,"name":"jamWee","category_code":"web","number_of_employees":5,"founded_year":2009}
{"city":"Brussels","country_code":"BEL","latitude":50.8742426,"longitude":4.2959247,"name":"ZackBrandit","category_code":"ecommerce","number_of_employees":6,"founded_year":2008}
{"city":"Bath","country_code":"GBR","latitude":51.3891333,"longitude":-2.3626891,"name":"ZodBod","category_code":"web","number_of_employees":1,"founded_year":2009}
{"city":"Toledo","country_code":"ESP","latitude":39.8725119,"longitude":-4.0210296,"name":"Hostarting","category_code":"web","number_of_employees":2,"founded_year":2009}
{"city":"Odense S","country_code":"DNK","latitude":55.3581088,"longitude":10.3947844,"name":"Centic","category_code":"software","number_of_employees":3,"founded_year":2008}
{"city":"Vancouver, British Columbia","country_code":"CAN","latitude":49.261226,"longitude":-123.1139268,"name":"QxMD Software","category_code":"mobile","number_of_employees":6,"founded_year":2009}
{"city":"Hamburg","country_code":"DEU","latitude":53.5688101,"longitude":9.9819779,"name":"expertnews","category_code":"web","number_of_employees":1,"founded_year":2009}
{"city":"Seattle","country_code":"USA","latitude":47.620973,"longitude":-122.347276,"name":"Flaggpole","category_code":"web","number_of_employees":4,"founded_year":2009}
{"city":"Stockholm","country_code":"SWE","latitude":59.3327881,"longitude":18.0644881,"name":"Pixlr","category_code":"software","number_of_employees":2,"founded_year":2008}
{"city":"West Palm Beach","country_code":"USA","latitude":26.706239,"longitude":-80.0520862,"name":"ReferenceBot","category_code":"web","number_of_employees":1,"founded_year":2009}
{"city":"Cambridge","country_code":"USA","latitude":42.3672873,"longitude":-71.0814466,"name":"Sponty","category_code":"web","number_of_employees":10,"founded_year":2008}
{"city":"Pozna\u00c5\u201e","country_code":"POL","latitude":52.298342,"longitude":16.8489579,"name":"Funnela","category_code":"software","number_of_employees":2,"founded_year":2008}
{"city":"","country_code":"IND","latitude":12.910491,"longitude":77.5857168,"name":"HashCube","category_code":"games_video","number_of_employees":5,"founded_year":2008}
{"city":"Austin","country_code":"USA","latitude":30.2961708,"longitude":-97.7389543,"name":"AppUseful","category_code":"web","number_of_employees":7,"founded_year":2009}
{"city":"Paradise Valley","country_code":"USA","latitude":33.519503,"longitude":-111.941542,"name":"College Art Online","category_code":"ecommerce","number_of_employees":2,"founded_year":2009}
{"city":"Madrid","country_code":"ESP","latitude":40.6367104,"longitude":-3.9980485,"name":"Undead Code Studios","category_code":"games_video","number_of_employees":5,"founded_year":2009}
{"city":"Bangalore","country_code":"IND","latitude":12.9164537,"longitude":77.6101165,"name":"IndiaOnAPage","category_code":"software","number_of_employees":8,"founded_year":2009}
{"city":"Berlin","country_code":"DEU","latitude":52.5235679,"longitude":13.3918223,"name":"barcoo","category_code":"mobile","number_of_employees":12,"founded_year":2008}
{"city":"Paris","country_code":"FRA","latitude":48.8730623,"longitude":2.3443538,"name":"Mobshop","category_code":"ecommerce","number_of_employees":4,"founded_year":2008}
{"city":"Doylestown","country_code":"USA","latitude":40.3113504,"longitude":-75.1135236,"name":"Nalts Consulting","category_code":"consulting","number_of_employees":1,"founded_year":2009}
{"city":"New York City","country_code":"USA","latitude":40.7489381,"longitude":-73.9918181,"name":"ArtNeighbor","category_code":"web","number_of_employees":5,"founded_year":2009}
{"city":"Kolkata","country_code":"IND","latitude":22.5985389,"longitude":88.40286,"name":"Primediart","category_code":"software","number_of_employees":10,"founded_year":2008}
{"city":"Lisbon","country_code":"PRT","latitude":38.7071631,"longitude":-9.135517,"name":"Movip","category_code":"web","number_of_employees":2,"founded_year":2009}
{"city":"Queensland","country_code":"AUS","latitude":-27.4574861,"longitude":153.033686,"name":"ekidnaworld","category_code":"games_video","number_of_employees":10,"founded_year":2010}
{"city":"Apex","country_code":"USA","latitude":35.684912,"longitude":-78.832593,"name":"TweetWagon","category_code":"web","number_of_employees":2,"founded_year":2009}
{"city":"Montreal","country_code":"CAN","latitude":45.503971,"longitude":-73.57236,"name":"mTrip","category_code":"mobile","number_of_employees":7,"founded_year":2009}
{"city":"Hamburg","country_code":"DEU","latitude":53.5622698,"longitude":9.9490139,"name":"scoyo","category_code":"games_video","number_of_employees":13,"founded_year":2009}
{"city":"Birmingham","country_code":"GBR","latitude":53.3706564,"longitude":-1.5613493,"name":"OnePage","category_code":"web","number_of_employees":2,"founded_year":2009}
{"city":"Gold Coast, QLD","country_code":"AUS","latitude":-28.048422,"longitude":153.4375,"name":"Exploroo Pty Ltd","category_code":"web","number_of_employees":11,"founded_year":2008}
{"city":"Copenhagen","country_code":"DNK","latitude":55.6674583,"longitude":12.5292039,"name":"Jomito","category_code":"ecommerce","number_of_employees":3,"founded_year":2008}
{"city":"Karlsruhe","country_code":"DEU","latitude":48.9974246,"longitude":8.4649954,"name":"FindandSmile","category_code":"web","number_of_employees":2,"founded_year":2009}
{"city":"New York","country_code":"USA","latitude":40.72874,"longitude":-73.989324,"name":"Covet Shop","category_code":"ecommerce","number_of_employees":2,"founded_year":2009}
{"city":"New York","country_code":"USA","latitude":40.756054,"longitude":-73.986951,"name":"Udorse","category_code":"web","number_of_employees":3,"founded_year":2009}
{"city":"San Jose","country_code":"USA","latitude":37.320052,"longitude":-121.877636,"name":"Meuzer","category_code":"games_video","number_of_employees":3,"founded_year":2009}
{"city":"Paris","country_code":"FRA","latitude":48.882769,"longitude":2.336453,"name":"YesOrNow","category_code":"web","number_of_employees":3,"founded_year":2009}
{"city":"London","country_code":"GBR","latitude":51.5203268,"longitude":-0.0994596,"name":"Zookel","category_code":"web","number_of_employees":10,"founded_year":2008}
{"city":"Paris","country_code":"FRA","latitude":48.8566667,"longitude":2.3509871,"name":"HURRYCAM","category_code":"web","number_of_employees":5,"founded_year":2009}
{"city":"London","country_code":"GBR","latitude":51.5395914,"longitude":-0.1525048,"name":"Bar Exchange","category_code":"web","number_of_employees":10,"founded_year":2009}
{"city":"Montreal","country_code":"CAN","latitude":45.5058782,"longitude":-73.5673333,"name":"Nirvana","category_code":"software","number_of_employees":3,"founded_year":2009}
{"city":"Fort Lauderdale","country_code":"USA","latitude":26.0607497,"longitude":-80.1899371,"name":"Kloud Mobile","category_code":"mobile","number_of_employees":10,"founded_year":2009}
{"city":"San Francisco","country_code":"USA","latitude":37.775196,"longitude":-122.419204,"name":"Finest Expert","category_code":"web","number_of_employees":3,"founded_year":2009}
{"city":"Waterloo","country_code":"CAN","latitude":43.477552,"longitude":-80.534491,"name":"Buddingup","category_code":"web","number_of_employees":2,"founded_year":2009}
{"city":"San Francisco","country_code":"USA","latitude":37.800482,"longitude":-122.402922,"name":"One Simple Move","category_code":"web","number_of_employees":4,"founded_year":2008}
{"city":"Des Moines","country_code":"USA","latitude":41.581232,"longitude":-93.621998,"name":"BitMethod","category_code":"mobile","number_of_employees":6,"founded_year":2009}
{"city":"Philadelphia","country_code":"USA","latitude":39.951639,"longitude":-75.163808,"name":"ZIPQODE","category_code":"web","number_of_employees":1,"founded_year":2009}
{"city":"Chicago","country_code":"USA","latitude":41.9174637,"longitude":-87.6664837,"name":"Eventric","category_code":"software","number_of_employees":10,"founded_year":2009}
{"city":"New York","country_code":"USA","latitude":40.7489381,"longitude":-73.9918181,"name":"Strategist News","category_code":"web","number_of_employees":4,"founded_year":2009}
{"city":"New York","country_code":"USA","latitude":40.714279,"longitude":-73.9565551,"name":"Disrupto","category_code":"web","number_of_employees":7,"founded_year":2008}
{"city":"Lake Geneva","country_code":"USA","latitude":42.5602523,"longitude":-88.4597673,"name":"CostumeWorks","category_code":"ecommerce","number_of_employees":3,"founded_year":2008}
{"city":"Austin","country_code":"USA","latitude":30.43385,"longitude":-97.739316,"name":"HomePros","category_code":"software","number_of_employees":15,"founded_year":2008}
{"city":"Paris","country_code":"FRA","latitude":48.8566667,"longitude":2.3509871,"name":"Ykone","category_code":"web","number_of_employees":10,"founded_year":2009}
{"city":"Oldenburg","country_code":"DEU","latitude":53.14967,"longitude":8.200653,"name":"youserbase","category_code":"network_hosting","number_of_employees":2,"founded_year":2009}
{"city":"Laguna Beach","country_code":"USA","latitude":33.5341548,"longitude":-117.7769669,"name":"ResuWe","category_code":"software","number_of_employees":5,"founded_year":2009}
{"city":"Columbia","country_code":"USA","latitude":34.002737,"longitude":-81.018312,"name":"Startlike","category_code":"web","number_of_employees":8,"founded_year":2009}
{"city":"Paris","country_code":"FRA","latitude":48.8787606,"longitude":2.3639174,"name":"BetKlub","category_code":"games_video","number_of_employees":3,"founded_year":2008}
{"city":"London","country_code":"GBR","latitude":51.5215279,"longitude":-0.1038219,"name":"Enternships","category_code":"web","number_of_employees":15,"founded_year":2009}
{"city":"Paris","country_code":"FRA","latitude":48.8566667,"longitude":2.3509871,"name":"B32TRUST","category_code":"software","number_of_employees":10,"founded_year":2008}
{"city":"Amsterdam","country_code":"NLD","latitude":52.3735592,"longitude":4.8852747,"name":"Kimengi","category_code":"web","number_of_employees":5,"founded_year":2008}
{"city":"Cleveland","country_code":"USA","latitude":41.701368,"longitude":-81.165981,"name":"Joroto","category_code":"web","number_of_employees":3,"founded_year":2008}
{"city":"Malm\u00f6","country_code":"SWE","latitude":55.6057989,"longitude":12.9950742,"name":"Kvittar","category_code":"web","number_of_employees":4,"founded_year":2009}
{"city":"Celje","country_code":"SVN","latitude":46.2347396,"longitude":15.2591055,"name":"Multiso Multimedia Solutions","category_code":"games_video","number_of_employees":1,"founded_year":2008}
{"city":"Singapore","country_code":"SGP","latitude":1.3427648,"longitude":103.8510535,"name":"Peekspy","category_code":"web","number_of_employees":5,"founded_year":2008}
{"city":"Den-Haag","country_code":"NLD","latitude":52.0889889,"longitude":4.3016891,"name":"OnlineMQ","category_code":"software","number_of_employees":5,"founded_year":2008}
{"city":"Madrid","country_code":"ESP","latitude":40.4244585,"longitude":-3.6990948,"name":"Taxi Fares app","category_code":"software","number_of_employees":5,"founded_year":2009}
{"city":"Z\u00c3\u00bcrich","country_code":"CHE","latitude":47.376362,"longitude":8.5142125,"name":"DSwiss","category_code":"web","number_of_employees":10,"founded_year":2008}
{"city":"Amsterdam","country_code":"NLD","latitude":52.3655578,"longitude":4.9345824,"name":"Lipperhey","category_code":"software","number_of_employees":6,"founded_year":2009}
{"city":"Las Vegas","country_code":"USA","latitude":36.0122687,"longitude":-115.4977708,"name":"iBizLog","category_code":"ecommerce","number_of_employees":5,"founded_year":2008}
{"city":"Houston","country_code":"USA","latitude":29.7726138,"longitude":-95.514493,"name":"Waveative","category_code":"consulting","number_of_employees":3,"founded_year":2008}
{"city":"Salzburg","country_code":"AUT","latitude":47.8227,"longitude":13.041788,"name":"Wikitude","category_code":"mobile","number_of_employees":20,"founded_year":2009}
{"city":"Woodland Hills","country_code":"USA","latitude":34.168955,"longitude":-118.575293,"name":"CrowdGather","category_code":"web","number_of_employees":9,"founded_year":2008}
{"city":"Oceanside","country_code":"USA","latitude":33.1832317,"longitude":-117.3321424,"name":"Amrita Financial","category_code":"web","number_of_employees":8,"founded_year":2008}
{"city":"Washington","country_code":"USA","latitude":38.905504,"longitude":-77.05681,"name":"Vortimer","category_code":"web","number_of_employees":2,"founded_year":2009}
{"city":"London","country_code":"GBR","latitude":51.5514688,"longitude":-0.1996418,"name":"Myhive","category_code":"mobile","number_of_employees":6,"founded_year":2009}
{"city":"Dresden","country_code":"DEU","latitude":51.0343624,"longitude":13.7759644,"name":"ubigrate","category_code":"software","number_of_employees":12,"founded_year":2008}
{"city":"San Francisco","country_code":"USA","latitude":37.7611016,"longitude":-122.4160008,"name":"TwtBks","category_code":"web","number_of_employees":3,"founded_year":2009}
{"city":"Mayaguez","country_code":"PRI","latitude":18.2066344,"longitude":-67.1517568,"name":"140Ware","category_code":"web","number_of_employees":3,"founded_year":2009}
{"city":"Monte Sereno","country_code":"USA","latitude":37.241813,"longitude":-121.986779,"name":"Asyus","category_code":"web","number_of_employees":7,"founded_year":2009}
{"city":"Austin","country_code":"USA","latitude":30.305809,"longitude":-97.8177601,"name":"LugIron Software","category_code":"software","number_of_employees":10,"founded_year":2009}
{"city":"New York","country_code":"USA","latitude":40.7408042,"longitude":-74.00717,"name":"ChallengePost","category_code":"web","number_of_employees":17,"founded_year":2009}
{"city":"Baltimore","country_code":"USA","latitude":39.2569898,"longitude":-76.684265,"name":"Kear IT","category_code":"consulting","number_of_employees":15,"founded_year":2008}
{"city":"Troy","country_code":"USA","latitude":28.490886,"longitude":-82.540512,"name":"Outspoken Media","category_code":"consulting","number_of_employees":8,"founded_year":2009}
{"city":"Ghaziabad","country_code":"IND","latitude":28.6382433,"longitude":77.0737149,"name":"SalesInsight","category_code":"consulting","number_of_employees":11,"founded_year":2008}
{"city":"Toronto, ON","country_code":"CAN","latitude":43.6502994,"longitude":-79.3762688,"name":"Clickom","category_code":"ecommerce","number_of_employees":11,"founded_year":2009}
{"city":"Washington","country_code":"USA","latitude":38.960381,"longitude":-77.084811,"name":"Homesnap","category_code":"analytics","number_of_employees":18,"founded_year":2008}
{"city":"Aliso Viejo","country_code":"USA","latitude":33.564557,"longitude":-117.735509,"name":"Tagito","category_code":"web","number_of_employees":4,"founded_year":2008}
{"city":"Los Angeles","country_code":"USA","latitude":34.0137151,"longitude":-118.4660597,"name":"Culture Jam","category_code":"web","number_of_employees":15,"founded_year":2008}
{"city":"Paris","country_code":"FRA","latitude":53.3328144,"longitude":-6.2493777,"name":"ftopia","category_code":"software","number_of_employees":7,"founded_year":2009}
{"city":"Cambridge","country_code":"USA","latitude":42.3672873,"longitude":-71.0814466,"name":"Tiverias Apps","category_code":"software","number_of_employees":20,"founded_year":2009}
{"city":"Beverly Hills","country_code":"USA","latitude":34.0698912,"longitude":-118.405325,"name":"HOTForms123","category_code":"web","number_of_employees":2,"founded_year":2009}
{"city":"New Haven","country_code":"USA","latitude":41.3279176,"longitude":-73.2435522,"name":"Continuity Engine","category_code":"software","number_of_employees":11,"founded_year":2008}
{"city":"Los Angeles","country_code":"USA","latitude":34.045499,"longitude":-118.47036,"name":"Pipit Interactive","category_code":"ecommerce","number_of_employees":10,"founded_year":2008}
{"city":"Oxford","country_code":"GBR","latitude":51.7714264,"longitude":-1.2581049,"name":"Bookwhen","category_code":"ecommerce","number_of_employees":2,"founded_year":2009}
{"city":"Austin","country_code":"USA","latitude":30.268735,"longitude":-97.745209,"name":"pTracker","category_code":"mobile","number_of_employees":2,"founded_year":2009}
{"city":"Astoria","country_code":"USA","latitude":40.7597951,"longitude":-73.9161267,"name":"Fictionaut","category_code":"games_video","number_of_employees":2,"founded_year":2008}
{"city":"Houston","country_code":"USA","latitude":29.735462,"longitude":-95.413243,"name":"Fictionaut","category_code":"games_video","number_of_employees":2,"founded_year":2008}
{"city":"New York City","country_code":"USA","latitude":40.756054,"longitude":-73.986951,"name":"Conversition","category_code":"web","number_of_employees":10,"founded_year":2008}
{"city":"London","country_code":"GBR","latitude":51.5177425,"longitude":-0.1165365,"name":"acrossair","category_code":"mobile","number_of_employees":6,"founded_year":2009}
{"city":"Reno","country_code":"USA","latitude":39.394564,"longitude":-119.8120795,"name":"MyChances","category_code":"consulting","number_of_employees":2,"founded_year":2009}
{"city":"Menlo Park","country_code":"USA","latitude":37.4484914,"longitude":-122.1802812,"name":"MyChances","category_code":"consulting","number_of_employees":2,"founded_year":2009}
{"city":"Brussels","country_code":"BEL","latitude":50.83997,"longitude":4.3464721,"name":"Getyoo","category_code":"mobile","number_of_employees":10,"founded_year":2009}