{"city":"Bellevue","country_code":"USA","latitude":47.597965,"longitude":-122.151158,"name":"YouBeQB","category_code":"games_video","number_of_employees":8,"founded_year":2008}
{"city":"Norderstedt","country_code":"DEU","latitude":53.707739,"longitude":10.023246,"name":"alluc","category_code":"games_video","number_of_employees":7,"founded_year":2009}
{"city":"Santa Monica","country_code":"USA","latitude":34.031764,"longitude":-118.461884,"name":"WonderHowTo","category_code":"games_video","number_of_employees":12,"founded_year":2008}
{"city":"Louisville","country_code":"USA","latitude":38.257035,"longitude":-85.717393,"name":"First30Days","category_code":"web","number_of_employees":17,"founded_year":2008}
{"city":"Kirkland","country_code":"USA","latitude":47.704875,"longitude":-122.187925,"name":"PokerPlayersSocialNetwork","category_code":"web","number_of_employees":3,"founded_year":2008}
{"city":"Sydney","country_code":"AUS","latitude":-34.054416,"longitude":151.039775,"name":"thatsmymouse","category_code":"web","number_of_employees":3,"founded_year":2008}
{"city":"Doha","country_code":"QAT","latitude":25.2948,"longitude":51.5082,"name":"Triptuber","category_code":"games_video","number_of_employees":2,"founded_year":2008}
{"city":"San Francisco","country_code":"USA","latitude":37.790032,"longitude":-122.404488,"name":"Unknown Vector","category_code":"web","number_of_employees":7,"founded_year":2008}
{"city":"Roubaix","country_code":"FRA","latitude":50.694712,"longitude":3.165225,"name":"Poodz","category_code":"web","number_of_employees":5,"founded_year":2008}
{"city":"Millstone Township","country_code":"USA","latitude":40.219214,"longitude":-74.370313,"name":"Stumpedia","category_code":"web","number_of_employees":1,"founded_year":2008}
{"city":"San Francisco","country_code":"USA","latitude":37.7766587,"longitude":-122.395875,"name":"YouNoodle","category_code":"analytics","number_of_employees":18,"founded_year":2010}
{"city":"Edmonton, Alberta","country_code":"CAN","latitude":53.4665377,"longitude":-113.5291728,"name":"Newspond","category_code":"web","number_of_employees":2,"founded_year":2008}
{"city":"San Mateo","country_code":"USA","latitude":37.534317,"longitude":-122.294847,"name":"CineGoGo","category_code":"games_video","number_of_employees":2,"founded_year":2008}
{"city":"Chicago","country_code":"USA","latitude":41.886368,"longitude":-87.641739,"name":"Academic Capital Exchange","category_code":"ecommerce","number_of_employees":5,"founded_year":2008}
{"city":"New York","country_code":"USA","latitude":40.794985,"longitude":-73.96831,"name":"RareShare","category_code":"network_hosting","number_of_employees":2,"founded_year":2008}
{"city":"Kauniainen","country_code":"FIN","latitude":60.214102,"longitude":24.704663,"name":"Scred","category_code":"web","number_of_employees":3,"founded_year":2008}
{"city":"","country_code":"USA","latitude":42.037302,"longitude":-71.683502,"name":"ZapNat","category_code":"web","number_of_employees":2,"founded_year":2008}
{"city":"Derry","country_code":"USA","latitude":42.894414,"longitude":-71.316744,"name":"Workpost","category_code":"ecommerce","number_of_employees":5,"founded_year":2008}
{"city":"Scottsdale","country_code":"USA","latitude":33.503906,"longitude":-111.93315,"name":"nobosh","category_code":"web","number_of_employees":1,"founded_year":2008}
{"city":"","country_code":"CHN","latitude":35.86166,"longitude":104.195397,"name":"CityIN","category_code":"web","number_of_employees":11,"founded_year":2008}
{"city":"West Dundee","country_code":"USA","latitude":42.091078,"longitude":-88.288749,"name":"Crootpad","category_code":"games_video","number_of_employees":2,"founded_year":2009}
{"city":"Palo Alto","country_code":"USA","latitude":37.5645375,"longitude":-122.3254705,"name":"Skydeck","category_code":"mobile","number_of_employees":9,"founded_year":2012}
{"city":"Dubai","country_code":"ARE","latitude":25.271139,"longitude":55.307485,"name":"Darrb","category_code":"ecommerce","number_of_employees":4,"founded_year":2008}
{"city":"","country_code":"GBR","latitude":55.378051,"longitude":-3.435973,"name":"Wordki","category_code":"web","number_of_employees":2,"founded_year":2008}
{"city":"Austin","country_code":"USA","latitude":47.635749,"longitude":-122.324362,"name":"Notice Technologies","category_code":"analytics","number_of_employees":5,"founded_year":2008}
{"city":"Arlington","country_code":"USA","latitude":38.909812,"longitude":-77.12016,"name":"CreateDebate","category_code":"web","number_of_employees":3,"founded_year":2008}
{"city":"San Francisco","country_code":"USA","latitude":37.80391,"longitude":-122.4042586,"name":"ReadBurner","category_code":"web","number_of_employees":4,"founded_year":2008}
{"city":"Sunnyvale","country_code":"USA","latitude":37.3793718,"longitude":-122.0124404,"name":"Clipta","category_code":"games_video","number_of_employees":16,"founded_year":2008}
{"city":"Boston","country_code":"USA","latitude":42.322072,"longitude":-71.13129,"name":"InformedMD","category_code":"web","number_of_employees":2,"founded_year":2008}
{"city":"Santa Monica","country_code":"USA","latitude":34.01052,"longitude":-118.495981,"name":"Intent","category_code":"web","number_of_employees":6,"founded_year":2008}
{"city":"Bangalore","country_code":"IND","latitude":13.033353,"longitude":77.578768,"name":"BuyerRaja","category_code":"web","number_of_employees":20,"founded_year":2008}
{"city":"","country_code":"USA","latitude":37.269175,"longitude":-119.306607,"name":"Episodic","category_code":"games_video","number_of_employees":6,"founded_year":2008}
{"city":"New York City","country_code":"USA","latitude":40.755409,"longitude":-73.992706,"name":"Wakozi","category_code":"web","number_of_employees":5,"founded_year":2008}
{"city":"Oslo","country_code":"NOR","latitude":59.91382,"longitude":10.738741,"name":"Kalibera","category_code":"web","number_of_employees":2,"founded_year":2008}
{"city":"Palo Alto","country_code":"USA","latitude":37.446382,"longitude":-122.155678,"name":"Noovo","category_code":"web","number_of_employees":8,"founded_year":2008}
{"city":"San Francisco","country_code":"USA","latitude":31.169036,"longitude":-100.076888,"name":"Woopra","category_code":"software","number_of_employees":12,"founded_year":2008}
{"city":"Sherman Oaks","country_code":"USA","latitude":34.153588,"longitude":-118.422495,"name":"AudioMicro","category_code":"games_video","number_of_employees":10,"founded_year":2008}
{"city":"San Francisco","country_code":"USA","latitude":37.775196,"longitude":-122.419204,"name":"stickychicken","category_code":"games_video","number_of_employees":2,"founded_year":2008}
{"city":"Palo Alto","country_code":"USA","latitude":37.446662,"longitude":-122.164925,"name":"Weardrobe","category_code":"web","number_of_employees":2,"founded_year":2008}
{"city":"Toms River","country_code":"USA","latitude":39.949301,"longitude":-74.125176,"name":"GamerNook","category_code":"web","number_of_employees":3,"founded_year":2008}
{"city":"","country_code":"USA","latitude":37.269175,"longitude":-119.306607,"name":"Twubble","category_code":"web","number_of_employees":1,"founded_year":2008}
{"city":"Las Vegas","country_code":"USA","latitude":36.136552,"longitude":-115.154816,"name":"FinFolio","category_code":"software","number_of_employees":3,"founded_year":2008}
{"city":"San Diego","country_code":"USA","latitude":34.063441,"longitude":-118.36543,"name":"FragMob","category_code":"software","number_of_employees":12,"founded_year":2008}
{"city":"Ann Arbor","country_code":"USA","latitude":42.282255,"longitude":-83.731129,"name":"skoogO","category_code":"web","number_of_employees":1,"founded_year":2008}
{"city":"Rennes","country_code":"FRA","latitude":48.1128512,"longitude":-1.6629087,"name":"Jobingenieur","category_code":"web","number_of_employees":2,"founded_year":2008}
{"city":"San Francisco","country_code":"USA","latitude":37.79851,"longitude":-122.457454,"name":"Cutcaster","category_code":"web","number_of_employees":8,"founded_year":2008}
{"city":"London","country_code":"GBR","latitude":51.48916,"longitude":-0.217662,"name":"TutorByTxt","category_code":"mobile","number_of_employees":2,"founded_year":2008}
{"city":"San Francisco","country_code":"USA","latitude":37.756922,"longitude":-122.42087,"name":"Sutros","category_code":"games_video","number_of_employees":3,"founded_year":2008}
{"city":"Chicago","country_code":"USA","latitude":36.009825,"longitude":-78.922055,"name":"Beer Universe","category_code":"web","number_of_employees":3,"founded_year":2008}
{"city":"San Francisco","country_code":"USA","latitude":37.7896292,"longitude":-122.3998782,"name":"Macroaxis","category_code":"software","number_of_employees":8,"founded_year":2009}
{"city":"Durham","country_code":"USA","latitude":36.0073,"longitude":-78.9206,"name":"StrawPoll","category_code":"web","number_of_employees":3,"founded_year":2008}
{"city":"Rancho Cordova","country_code":"USA","latitude":38.589948,"longitude":-121.262316,"name":"Imagine Whatever","category_code":"web","number_of_employees":3,"founded_year":2008}
{"city":"Plant City","country_code":"USA","latitude":28.554855,"longitude":-82.391633,"name":"Sideline Report","category_code":"web","number_of_employees":5,"founded_year":2008}
{"city":"Auckland","country_code":"NZL","latitude":-36.879454,"longitude":174.72663,"name":"WotsCool","category_code":"web","number_of_employees":1,"founded_year":2008}
{"city":"Corby","country_code":"GBR","latitude":52.472029,"longitude":-0.698361,"name":"twit+","category_code":"games_video","number_of_employees":1,"founded_year":2008}
{"city":"Los Angeles","country_code":"USA","latitude":34.05285,"longitude":-118.264858,"name":"GeoGraffiti","category_code":"mobile","number_of_employees":5,"founded_year":2008}
{"city":"Tucson","country_code":"USA","latitude":32.240301,"longitude":-110.958319,"name":"Rekatu","category_code":"games_video","number_of_employees":5,"founded_year":2008}
{"city":"Mangalore","country_code":"IND","latitude":12.86936,"longitude":74.84256,"name":"Park Hill","category_code":"web","number_of_employees":10,"founded_year":2008}
{"city":"San Francisco","country_code":"USA","latitude":37.773727,"longitude":-122.401537,"name":"RemindBlast","category_code":"web","number_of_employees":5,"founded_year":2008}
{"city":"Akron","country_code":"USA","latitude":41.143544,"longitude":-81.473725,"name":"CogCog","category_code":"web","number_of_employees":2,"founded_year":2008}
{"city":"San Francisco","country_code":"USA","latitude":37.754332,"longitude":-122.416804,"name":"Supercool School","category_code":"web","number_of_employees":3,"founded_year":2009}
{"city":"Cherry Hill","country_code":"USA","latitude":39.928792,"longitude":-75.024335,"name":"uLiken","category_code":"web","number_of_employees":2,"founded_year":2008}
{"city":"Cologne","country_code":"DEU","latitude":50.9508924,"longitude":6.9280123,"name":"FRoSP","category_code":"web","number_of_employees":2,"founded_year":2008}
{"city":"New York","country_code":"USA","latitude":40.798345,"longitude":-73.963158,"name":"College Mogul","category_code":"web","number_of_employees":9,"founded_year":2008}
{"city":"San Fransisco","country_code":"USA","latitude":37.799596,"longitude":-122.4641,"name":"Chictopia","category_code":"network_hosting","number_of_employees":4,"founded_year":2008}
{"city":"Santa Clara","country_code":"USA","latitude":37.760524,"longitude":-122.387799,"name":"Fuzz","category_code":"games_video","number_of_employees":6,"founded_year":2011}
{"city":"San Francisco","country_code":"USA","latitude":37.791128,"longitude":-122.398126,"name":"Fonemesh","category_code":"mobile","number_of_employees":7,"founded_year":2008}
{"city":"Singapore","country_code":"SGP","latitude":1.289407,"longitude":103.849962,"name":"Fonemesh","category_code":"mobile","number_of_employees":7,"founded_year":2008}
{"city":"San Francisco","country_code":"USA","latitude":37.775196,"longitude":-122.419204,"name":"Stitcher","category_code":"mobile","number_of_employees":17,"founded_year":2008}
{"city":"","country_code":"PRT","latitude":39.399872,"longitude":-8.224454,"name":"Moosti","category_code":"web","number_of_employees":2,"founded_year":2008}
{"city":"Hyderabad","country_code":"IND","latitude":17.385044,"longitude":78.486671,"name":"SmashingFeeds","category_code":"web","number_of_employees":1,"founded_year":2008}
{"city":"Hamburg","country_code":"DEU","latitude":53.561185,"longitude":9.966419,"name":"Jupidi","category_code":"web","number_of_employees":3,"founded_year":2008}
{"city":"Hazleton","country_code":"USA","latitude":40.977855,"longitude":-76.029511,"name":"JumpFrog","category_code":"consulting","number_of_employees":12,"founded_year":2008}
{"city":"Burlington","country_code":"CAN","latitude":43.366842,"longitude":-79.824384,"name":"Mangaroo Media","category_code":"web","number_of_employees":3,"founded_year":2008}
{"city":"London","country_code":"GBR","latitude":51.517076,"longitude":-0.150417,"name":"Worship Journal","category_code":"web","number_of_employees":3,"founded_year":2008}
{"city":"Houston","country_code":"USA","latitude":29.735082,"longitude":-95.390758,"name":"Mouth Watering Media","category_code":"web","number_of_employees":10,"founded_year":2008}
{"city":"Santa Monica","country_code":"USA","latitude":34.032461,"longitude":-118.481828,"name":"Pacific New Media","category_code":"ecommerce","number_of_employees":2,"founded_year":2008}
{"city":"Raleigh","country_code":"USA","latitude":35.779748,"longitude":-78.643414,"name":"Blazing Bid","category_code":"web","number_of_employees":1,"founded_year":2008}
{"city":"","country_code":"USA","latitude":42.037302,"longitude":-71.683502,"name":"REblogg","category_code":"ecommerce","number_of_employees":1,"founded_year":2008}
{"city":"Whistler","country_code":"USA","latitude":50.123306,"longitude":-122.96391,"name":"hearwhere","category_code":"games_video","number_of_employees":2,"founded_year":2008}
{"city":"South Jordan","country_code":"USA","latitude":40.57352,"longitude":-111.959164,"name":"CarArt","category_code":"ecommerce","number_of_employees":3,"founded_year":2008}
{"city":"London","country_code":"GBR","latitude":51.500152,"longitude":-0.126236,"name":"Phreadz","category_code":"web","number_of_employees":1,"founded_year":2008}
{"city":"Qu\u00c3\u00a9bec","country_code":"CAN","latitude":46.898577,"longitude":-71.20097,"name":"Ovologic","category_code":"software","number_of_employees":1,"founded_year":2008}
{"city":"Kent","country_code":"GBR","latitude":51.125693,"longitude":0.257568,"name":"Socruise","category_code":"web","number_of_employees":5,"founded_year":2008}
{"city":"Madison Heights","country_code":"USA","latitude":42.51214,"longitude":-83.14483,"name":"wagehub","category_code":"web","number_of_employees":1,"founded_year":2008}
{"city":"San Francisco","country_code":"USA","latitude":37.78597,"longitude":-122.437262,"name":"SFentrepreneur","category_code":"web","number_of_employees":2,"founded_year":2008}
{"city":"New York","country_code":"USA","latitude":40.757929,"longitude":-73.985506,"name":"Pinch Media","category_code":"software","number_of_employees":6,"founded_year":2008}
{"city":"Mississauga","country_code":"CAN","latitude":43.657979,"longitude":-79.603622,"name":"Plurk","category_code":"web","number_of_employees":7,"founded_year":2008}
{"city":"Bangalore","country_code":"IND","latitude":12.975531,"longitude":77.653739,"name":"Manam Infotech","category_code":"software","number_of_employees":20,"founded_year":2008}
{"city":"Austin","country_code":"USA","latitude":30.275261,"longitude":-97.763987,"name":"Ucareer","category_code":"web","number_of_employees":6,"founded_year":2008}
{"city":"Chicago","country_code":"USA","latitude":42.010632,"longitude":-87.66831,"name":"DormTrader","category_code":"web","number_of_employees":1,"founded_year":2008}
{"city":"Scarborough","country_code":"GBR","latitude":54.211373,"longitude":-0.469586,"name":"MESOMOCO","category_code":"web","number_of_employees":4,"founded_year":2008}
{"city":"London","country_code":"GBR","latitude":51.500152,"longitude":-0.126236,"name":"Sazell","category_code":"web","number_of_employees":2,"founded_year":2008}
{"city":"","country_code":"USA","latitude":37.09024,"longitude":-95.712891,"name":"Wazzala","category_code":"web","number_of_employees":1,"founded_year":2008}
{"city":"Bangalore","country_code":"IND","latitude":49.0092558,"longitude":8.4102781,"name":"Orbster","category_code":"mobile","number_of_employees":8,"founded_year":2008}
{"city":"Bellevue","country_code":"USA","latitude":47.584975,"longitude":-122.132013,"name":"NitroDesk","category_code":"software","number_of_employees":8,"founded_year":2008}
{"city":"New York","country_code":"USA","latitude":40.749277,"longitude":-73.978733,"name":"Plentitube","category_code":"ecommerce","number_of_employees":5,"founded_year":2008}
{"city":"New York","country_code":"USA","latitude":40.714521,"longitude":-74.007072,"name":"Strateer","category_code":"web","number_of_employees":2,"founded_year":2008}
{"city":"Van Nuys","country_code":"USA","latitude":40.650291,"longitude":-74.294395,"name":"CollegeConvo","category_code":"web","number_of_employees":2,"founded_year":2010}
{"city":"Las Vegas","country_code":"USA","latitude":36.233048,"longitude":-115.246776,"name":"iPlaceBook","category_code":"web","number_of_employees":1,"founded_year":2008}
{"city":"Citrus Heights","country_code":"USA","latitude":38.692609,"longitude":-121.267626,"name":"Restyleme","category_code":"web","number_of_employees":2,"founded_year":2008}
{"city":"Venice","country_code":"USA","latitude":33.995974,"longitude":-118.456709,"name":"PerfectBusiness","category_code":"web","number_of_employees":10,"founded_year":2008}
{"city":"Sao Paulo","country_code":"BRA","latitude":-23.548943,"longitude":-46.638818,"name":"Estilook","category_code":"web","number_of_employees":3,"founded_year":2008}
{"city":"Palo Alto","country_code":"USA","latitude":37.444332,"longitude":-122.161018,"name":"Tapulous","category_code":"mobile","number_of_employees":15,"founded_year":2008}
{"city":"Moreno Valley","country_code":"USA","latitude":33.921969,"longitude":-117.249376,"name":"Faneebo","category_code":"games_video","number_of_employees":1,"founded_year":2008}
{"city":"Boulder","country_code":"USA","latitude":40.01831,"longitude":-105.278025,"name":"Passitto","category_code":"web","number_of_employees":3,"founded_year":2008}
{"city":"West Palm Beach","country_code":"USA","latitude":26.708395,"longitude":-80.229012,"name":"Ziipa","category_code":"ecommerce","number_of_employees":2,"founded_year":2008}
{"city":"Bethesda","country_code":"USA","latitude":38.989124,"longitude":-77.026676,"name":"Carfeine","category_code":"software","number_of_employees":5,"founded_year":2012}
{"city":"Palo Alto","country_code":"USA","latitude":37.4440981,"longitude":-122.1612868,"name":"Ziippi","category_code":"web","number_of_employees":6,"founded_year":2011}
{"city":"West Hollywood","country_code":"USA","latitude":34.091073,"longitude":-118.367701,"name":"Pink Banana Media","category_code":"consulting","number_of_employees":2,"founded_year":2008}
{"city":"Santa Monica","country_code":"USA","latitude":53.544711,"longitude":-113.515769,"name":"Titan Gaming","category_code":"games_video","number_of_employees":18,"founded_year":2010}
{"city":"Scottsdale","country_code":"USA","latitude":33.533027,"longitude":-111.923849,"name":"gAuto","category_code":"ecommerce","number_of_employees":3,"founded_year":2008}
{"city":"Alameda","country_code":"USA","latitude":37.78424,"longitude":-122.274771,"name":"BitRock","category_code":"software","number_of_employees":20,"founded_year":2009}
{"city":"Cesson S\u00c3\u00a9vign\u00c3\u00a9","country_code":"FRA","latitude":48.10583,"longitude":-1.611882,"name":"Xilinus","category_code":"web","number_of_employees":2,"founded_year":2008}
{"city":"Phoenix","country_code":"USA","latitude":33.64873,"longitude":-112.051346,"name":"Bragosphere","category_code":"games_video","number_of_employees":3,"founded_year":2008}
{"city":"Richmond Hill","country_code":"CAN","latitude":43.874167,"longitude":-79.4242645,"name":"oybuzz","category_code":"consulting","number_of_employees":5,"founded_year":2008}
{"city":"Lima","country_code":"PER","latitude":-12.0805011,"longitude":-77.0551909,"name":"CreActivity Focus","category_code":"web","number_of_employees":10,"founded_year":2008}
{"city":"San Sebasti\u00e1n","country_code":"ESP","latitude":43.3135579,"longitude":-1.9820361,"name":"Forvo","category_code":"web","number_of_employees":4,"founded_year":2008}
{"city":"Austin","country_code":"USA","latitude":30.291391,"longitude":-97.710481,"name":"Uprizer Labs","category_code":"software","number_of_employees":5,"founded_year":2008}
{"city":"Seattle","country_code":"USA","latitude":44.859587,"longitude":-93.226503,"name":"Gimigo","category_code":"analytics","number_of_employees":4,"founded_year":2013}
{"city":"San Francisco","country_code":"USA","latitude":37.775196,"longitude":-122.419204,"name":"Posterous","category_code":"web","number_of_employees":9,"founded_year":2008}
{"city":"Boynton Beach","country_code":"USA","latitude":26.528215,"longitude":-80.082474,"name":"SNASM","category_code":"web","number_of_employees":2,"founded_year":2008}
{"city":"Seattle","country_code":"USA","latitude":40.179731,"longitude":-105.20545,"name":"Jetrecord","category_code":"web","number_of_employees":1,"founded_year":2008}
{"city":"San Francisco","country_code":"USA","latitude":37.758352,"longitude":-122.398379,"name":"Open Places","category_code":"web","number_of_employees":3,"founded_year":2008}
{"city":"London","country_code":"GBR","latitude":51.5001524,"longitude":-0.1262362,"name":"TweetDeck","category_code":"software","number_of_employees":5,"founded_year":2008}
{"city":"Omaha","country_code":"USA","latitude":30.268735,"longitude":-97.745209,"name":"Ninth Yard","category_code":"software","number_of_employees":1,"founded_year":2008}
{"city":"Atlanta","country_code":"USA","latitude":33.754487,"longitude":-84.389663,"name":"Regator","category_code":"web","number_of_employees":4,"founded_year":2008}
{"city":"Thessaloniki","country_code":"GRC","latitude":40.6072691,"longitude":22.9600935,"name":"Wi-Not","category_code":"mobile","number_of_employees":5,"founded_year":2008}
{"city":"Plano","country_code":"USA","latitude":33.079033,"longitude":-96.776711,"name":"BackVerse","category_code":"ecommerce","number_of_employees":1,"founded_year":2008}
{"city":"Santa Monica","country_code":"USA","latitude":34.015464,"longitude":-118.493105,"name":"Prolebrity","category_code":"web","number_of_employees":8,"founded_year":2008}
{"city":"Saint John","country_code":"CAN","latitude":45.298204,"longitude":-66.09705,"name":"The Drum Fill","category_code":"web","number_of_employees":3,"founded_year":2008}
{"city":"Brooklyn","country_code":"USA","latitude":40.727434,"longitude":-73.9447994,"name":"GEN247","category_code":"games_video","number_of_employees":12,"founded_year":2008}
{"city":"San Diego","country_code":"USA","latitude":32.867073,"longitude":-117.211077,"name":"Google And Blog","category_code":"mobile","number_of_employees":1,"founded_year":2008}
{"city":"London","country_code":"GBR","latitude":51.498067,"longitude":-0.175393,"name":"Kappa Prime","category_code":"web","number_of_employees":2,"founded_year":2008}
{"city":"San Francisco","country_code":"USA","latitude":37.796164,"longitude":-122.420903,"name":"EcoFlip","category_code":"web","number_of_employees":5,"founded_year":2008}
{"city":"New York","country_code":"USA","latitude":40.724289,"longitude":-73.980587,"name":"GigMaven","category_code":"games_video","number_of_employees":8,"founded_year":2008}
{"city":"Raleigh","country_code":"USA","latitude":35.779748,"longitude":-78.643414,"name":"Bars For Us","category_code":"games_video","number_of_employees":4,"founded_year":2008}
{"city":"San Francisco","country_code":"USA","latitude":37.780134,"longitude":-122.396744,"name":"Scavenja","category_code":"games_video","number_of_employees":8,"founded_year":2008}
{"city":"Wellington","country_code":"NZL","latitude":-41.296454,"longitude":174.774682,"name":"Tripy Travel","category_code":"web","number_of_employees":10,"founded_year":2008}
{"city":"Meadowbank NSW","country_code":"AUS","latitude":-33.817773,"longitude":151.091193,"name":"SMS Poll","category_code":"mobile","number_of_employees":4,"founded_year":2008}
{"city":"Providence","country_code":"USA","latitude":41.83,"longitude":-71.41,"name":"World Wide Talent Search","category_code":"games_video","number_of_employees":1,"founded_year":2008}
{"city":"San Carlos","country_code":"USA","latitude":37.494996,"longitude":-122.267654,"name":"Rock Entertainment","category_code":"web","number_of_employees":3,"founded_year":2008}
{"city":"Flower Mound","country_code":"USA","latitude":33.020039,"longitude":-97.069403,"name":"MedicareSaver","category_code":"web","number_of_employees":6,"founded_year":2008}
{"city":"Carmel","country_code":"USA","latitude":39.973067,"longitude":-86.198436,"name":"Blinkweb","category_code":"web","number_of_employees":3,"founded_year":2008}
{"city":"Nashville","country_code":"USA","latitude":36.124497,"longitude":-86.846342,"name":"InstantAmber","category_code":"web","number_of_employees":5,"founded_year":2008}
{"city":"London","country_code":"GBR","latitude":51.51781,"longitude":-0.184358,"name":"Dynamic50","category_code":"consulting","number_of_employees":10,"founded_year":2008}
{"city":"Berlin","country_code":"DEU","latitude":52.521627,"longitude":13.40462,"name":"15Talents","category_code":"consulting","number_of_employees":12,"founded_year":2008}
{"city":"Utrecht","country_code":"NLD","latitude":52.091381,"longitude":5.148893,"name":"Jibes","category_code":"web","number_of_employees":15,"founded_year":2008}
{"city":"","country_code":"IND","latitude":19.017656,"longitude":72.856178,"name":"IdeaFry","category_code":"network_hosting","number_of_employees":5,"founded_year":2008}
{"city":"Dhaka","country_code":"BGD","latitude":23.797333,"longitude":90.401432,"name":"IBTgames","category_code":"games_video","number_of_employees":11,"founded_year":2008}
{"city":"Worcester","country_code":"USA","latitude":42.23988,"longitude":-71.839344,"name":"IBTgames","category_code":"games_video","number_of_employees":11,"founded_year":2008}
{"city":"Dorking, Surrey","country_code":"GBR","latitude":51.2798857,"longitude":-0.4274181,"name":"WorkoutBOX","category_code":"web","number_of_employees":5,"founded_year":2008}
{"city":"Agoura Hills","country_code":"USA","latitude":34.146149,"longitude":-118.761265,"name":"Qovax","category_code":"software","number_of_employees":2,"founded_year":2008}
{"city":"Houston","country_code":"USA","latitude":29.983076,"longitude":-95.5627227,"name":"Handcrafted","category_code":"consulting","number_of_employees":5,"founded_year":2008}
{"city":"N. Attleboro","country_code":"USA","latitude":41.957177,"longitude":-71.3607,"name":"Relativity","category_code":"consulting","number_of_employees":4,"founded_year":2008}
{"city":"Vancouver","country_code":"CAN","latitude":49.242824,"longitude":-123.060221,"name":"Ratemyideas","category_code":"web","number_of_employees":2,"founded_year":2008}
{"city":"Kansas City","country_code":"USA","latitude":39.104837,"longitude":-94.594928,"name":"Tweenky","category_code":"web","number_of_employees":1,"founded_year":2008}
{"city":"Belmont","country_code":"USA","latitude":37.513811,"longitude":-122.296337,"name":"ResearchScorecard","category_code":"network_hosting","number_of_employees":1,"founded_year":2008}
{"city":"Philadelphia","country_code":"USA","latitude":39.95644,"longitude":-75.196171,"name":"Anthillz","category_code":"web","number_of_employees":6,"founded_year":2008}
{"city":"London","country_code":"GBR","latitude":51.5399105,"longitude":-0.2859795,"name":"Mixcloud","category_code":"games_video","number_of_employees":8,"founded_year":2008}
{"city":"Metz","country_code":"FRA","latitude":49.1004,"longitude":6.182658,"name":"Click2Map","category_code":"web","number_of_employees":4,"founded_year":2008}
{"city":"San Francisco","country_code":"USA","latitude":37.775196,"longitude":-122.419204,"name":"Zorap","category_code":"web","number_of_employees":2,"founded_year":2008}
{"city":"Falmouth","country_code":"USA","latitude":43.6910137,"longitude":-70.2694636,"name":"Zorap","category_code":"web","number_of_employees":2,"founded_year":2008}
{"city":"Palo Alto","country_code":"USA","latitude":37.4459832,"longitude":-122.1490582,"name":"RankBoom","category_code":"web","number_of_employees":2,"founded_year":2008}
{"city":"Durham","country_code":"GBR","latitude":54.703145,"longitude":-1.574948,"name":"CompareAway","category_code":"web","number_of_employees":5,"founded_year":2009}
{"city":"Berlin","country_code":"DEU","latitude":52.510284,"longitude":13.465981,"name":"want2do","category_code":"web","number_of_employees":4,"founded_year":2008}
{"city":"Atlanta","country_code":"USA","latitude":33.877286,"longitude":-84.334042,"name":"LocalPrice","category_code":"web","number_of_employees":3,"founded_year":2008}
{"city":"Concord","country_code":"USA","latitude":42.45494,"longitude":-71.356845,"name":"SchoolPulse","category_code":"web","number_of_employees":6,"founded_year":2008}
{"city":"Chicago","country_code":"USA","latitude":41.886048,"longitude":-87.625743,"name":"Shop Like Anna","category_code":"ecommerce","number_of_employees":5,"founded_year":2008}
{"city":"Mercer Island","country_code":"USA","latitude":47.565229,"longitude":-122.233149,"name":"TuneyFish","category_code":"consulting","number_of_employees":2,"founded_year":2008}
{"city":"London","country_code":"GBR","latitude":51.549167,"longitude":-0.24233,"name":"retaggr","category_code":"web","number_of_employees":4,"founded_year":2008}
{"city":"San Francisco","country_code":"USA","latitude":37.7749295,"longitude":-122.4194155,"name":"Same Page Capital","category_code":"consulting","number_of_employees":1,"founded_year":2008}
{"city":"Prenton","country_code":"GBR","latitude":53.386432,"longitude":-3.036415,"name":"Treasuremytext","category_code":"mobile","number_of_employees":2,"founded_year":2008}
{"city":"New York","country_code":"USA","latitude":40.739867,"longitude":-73.990024,"name":"YellowSpaces","category_code":"web","number_of_employees":1,"founded_year":2008}
{"city":"Santa Barbara","country_code":"USA","latitude":34.4335255,"longitude":-119.8084281,"name":"RevJobs","category_code":"web","number_of_employees":1,"founded_year":2008}
{"city":"Los Angeles","country_code":"USA","latitude":34.070436,"longitude":-118.350486,"name":"Tubefilter","category_code":"games_video","number_of_employees":12,"founded_year":2008}
{"city":"Lake Arrowhead","country_code":"USA","latitude":34.265641,"longitude":-117.11359,"name":"Spellspace","category_code":"web","number_of_employees":2,"founded_year":2008}
{"city":"Toronto","country_code":"CAN","latitude":43.769574,"longitude":-79.411513,"name":"Classtell","category_code":"web","number_of_employees":1,"founded_year":2008}
{"city":"Paris","country_code":"FRA","latitude":48.8785721,"longitude":2.3249952,"name":"Orinea","category_code":"web","number_of_employees":5,"founded_year":2008}
{"city":"Casablanca, Maroc","country_code":"FRA","latitude":33.5922469,"longitude":-7.6332257,"name":"Orinea","category_code":"web","number_of_employees":5,"founded_year":2008}
{"city":"Worcester","country_code":"GBR","latitude":52.232349,"longitude":-2.26681,"name":"TheWebService","category_code":"web","number_of_employees":12,"founded_year":2008}
{"city":"Therwil","country_code":"CHE","latitude":47.377663,"longitude":8.527005,"name":"Millform","category_code":"mobile","number_of_employees":10,"founded_year":2008}
{"city":"Amsterdam","country_code":"NLD","latitude":52.3644743,"longitude":4.8926529,"name":"TwitterCounter","category_code":"web","number_of_employees":1,"founded_year":2008}
{"city":"Palo Alto","country_code":"USA","latitude":37.437328,"longitude":-122.159928,"name":"Snipd","category_code":"games_video","number_of_employees":2,"founded_year":2008}
{"city":"Austin","country_code":"USA","latitude":30.268735,"longitude":-97.745209,"name":"Snipd","category_code":"games_video","number_of_employees":2,"founded_year":2008}
{"city":"Milan","country_code":"ITA","latitude":45.507014,"longitude":9.2298577,"name":"Digital ReveNew","category_code":"consulting","number_of_employees":20,"founded_year":2008}
{"city":"Rome","country_code":"ITA","latitude":41.8975813,"longitude":12.4941336,"name":"Digital ReveNew","category_code":"consulting","number_of_employees":20,"founded_year":2008}
{"city":"Sunnyvale","country_code":"USA","latitude":37.424614,"longitude":-122.145153,"name":"vufind","category_code":"mobile","number_of_employees":7,"founded_year":2010}
{"city":"Newbury","country_code":"GBR","latitude":51.417565,"longitude":-1.313068,"name":"Groopi","category_code":"games_video","number_of_employees":1,"founded_year":2008}
{"city":"Toronto","country_code":"CAN","latitude":43.632844,"longitude":-79.554784,"name":"Strider SEO","category_code":"consulting","number_of_employees":3,"founded_year":2008}
{"city":"Woodbridge","country_code":"CAN","latitude":43.768232,"longitude":-79.611182,"name":"Strider SEO","category_code":"consulting","number_of_employees":3,"founded_year":2008}
{"city":"San Francisco","country_code":"USA","latitude":41.864917,"longitude":-87.625271,"name":"Poll Everywhere","category_code":"mobile","number_of_employees":20,"founded_year":2008}
{"city":"Washington","country_code":"USA","latitude":38.897976,"longitude":-77.028561,"name":"YadaHome","category_code":"network_hosting","number_of_employees":1,"founded_year":2008}
{"city":"Corby","country_code":"GBR","latitude":52.472029,"longitude":-0.698361,"name":"twit+","category_code":"games_video","number_of_employees":1,"founded_year":2008}
{"city":"Princeville","country_code":"USA","latitude":22.226745,"longitude":-159.480262,"name":"Plum Amazing","category_code":"software","number_of_employees":4,"founded_year":2008}
{"city":"Redmond","country_code":"USA","latitude":47.67356,"longitude":-122.133621,"name":"eTalkup","category_code":"web","number_of_employees":5,"founded_year":2008}
{"city":"Boulder","country_code":"USA","latitude":40.018145,"longitude":-105.278109,"name":"Occipital","category_code":"software","number_of_employees":9,"founded_year":2008}
{"city":"San Marcos","country_code":"USA","latitude":29.876617,"longitude":-97.940336,"name":"App Cubby","category_code":"mobile","number_of_employees":2,"founded_year":2008}
{"city":"Vienna","country_code":"AUT","latitude":48.182591,"longitude":16.357786,"name":"Cityflats4you","category_code":"web","number_of_employees":2,"founded_year":2008}
{"city":"San Francisco","country_code":"USA","latitude":37.782101,"longitude":-122.389519,"name":"Carticipate","category_code":"mobile","number_of_employees":3,"founded_year":2008}
{"city":"New Delhi","country_code":"IND","latitude":28.554777,"longitude":77.210726,"name":"Diditz","category_code":"network_hosting","number_of_employees":2,"founded_year":2008}
{"city":"Amsterdam","country_code":"NLD","latitude":52.352201,"longitude":4.890314,"name":"NewMarCom","category_code":"consulting","number_of_employees":1,"founded_year":2008}
{"city":"Chandler","country_code":"USA","latitude":33.3176,"longitude":-111.8566,"name":"cosinity","category_code":"web","number_of_employees":1,"founded_year":2008}
{"city":"Sausalito","country_code":"USA","latitude":37.864435,"longitude":-122.490586,"name":"Adgregate Markets","category_code":"ecommerce","number_of_employees":20,"founded_year":2008}
{"city":"Sunnyvale","country_code":"USA","latitude":37.384239,"longitude":-122.012475,"name":"iCharts","category_code":"analytics","number_of_employees":16,"founded_year":2008}
{"city":"San Diego","country_code":"USA","latitude":32.718834,"longitude":-117.163841,"name":"Galaxy","category_code":"software","number_of_employees":2,"founded_year":2008}
{"city":"San Francisco","country_code":"USA","latitude":37.80204,"longitude":-122.438231,"name":"plaYce","category_code":"games_video","number_of_employees":7,"founded_year":2008}
{"city":"St Charles","country_code":"USA","latitude":41.931912,"longitude":-88.294854,"name":"IdenIve","category_code":"web","number_of_employees":1,"founded_year":2008}
{"city":"New York","country_code":"USA","latitude":40.775309,"longitude":-73.983656,"name":"Producteev","category_code":"software","number_of_employees":10,"founded_year":2008}
{"city":"Palo Alto","country_code":"USA","latitude":37.448598,"longitude":-122.158497,"name":"Bojam","category_code":"games_video","number_of_employees":5,"founded_year":2008}
{"city":"San Francisco","country_code":"USA","latitude":37.794124,"longitude":-122.403223,"name":"Twonq","category_code":"web","number_of_employees":3,"founded_year":2008}
{"city":"Delft","country_code":"NLD","latitude":51.9973515,"longitude":4.3848574,"name":"Twonq","category_code":"web","number_of_employees":3,"founded_year":2008}
{"city":"Philadelphia","country_code":"USA","latitude":39.951639,"longitude":-75.163808,"name":"The Impartial Observer","category_code":"web","number_of_employees":4,"founded_year":2008}
{"city":"Brookline","country_code":"USA","latitude":42.342152,"longitude":-71.121625,"name":"PicMe","category_code":"software","number_of_employees":3,"founded_year":2008}
{"city":"Bangalore","country_code":"IND","latitude":12.971606,"longitude":77.594376,"name":"eLagaan","category_code":"web","number_of_employees":20,"founded_year":2008}
{"city":"Fremont","country_code":"USA","latitude":37.3110283,"longitude":-121.9501439,"name":"eLagaan","category_code":"web","number_of_employees":20,"founded_year":2008}
{"city":"","country_code":"USA","latitude":40.756054,"longitude":-73.986951,"name":"Papervitamins","category_code":"web","number_of_employees":2,"founded_year":2008}
{"city":"Yokohama","country_code":"JPN","latitude":35.4437078,"longitude":139.6380256,"name":"Papervitamins","category_code":"web","number_of_employees":2,"founded_year":2008}
{"city":"Poway","country_code":"USA","latitude":32.981201,"longitude":-117.062239,"name":"CropMom","category_code":"software","number_of_employees":3,"founded_year":2008}
{"city":"Los Gatos","country_code":"USA","latitude":37.228232,"longitude":-121.987122,"name":"911ice","category_code":"web","number_of_employees":4,"founded_year":2008}
{"city":"San Francisco","country_code":"USA","latitude":37.7753,"longitude":-122.4186,"name":"TopNotchThemes","category_code":"ecommerce","number_of_employees":5,"founded_year":2008}
{"city":"","country_code":"USA","latitude":40.822087,"longitude":-73.950677,"name":"Klatcher","category_code":"web","number_of_employees":5,"founded_year":2008}
{"city":"","country_code":"USA","latitude":44.528743,"longitude":-88.10135,"name":"Pepmall","category_code":"ecommerce","number_of_employees":2,"founded_year":2008}
{"city":"Charlotte","country_code":"USA","latitude":35.208745,"longitude":-80.83722,"name":"splaht!","category_code":"web","number_of_employees":2,"founded_year":2008}
{"city":"Madrid","country_code":"ESP","latitude":40.412323,"longitude":-3.703248,"name":"Daily Flat Rental","category_code":"ecommerce","number_of_employees":2,"founded_year":2008}
{"city":"Cupertino","country_code":"USA","latitude":37.323234,"longitude":-122.055177,"name":"Spare Change Payments","category_code":"web","number_of_employees":8,"founded_year":2008}
{"city":"Holly Springs","country_code":"USA","latitude":35.633134,"longitude":-78.862414,"name":"BrainyAtom","category_code":"ecommerce","number_of_employees":2,"founded_year":2008}
{"city":"Singapore","country_code":"SGP","latitude":1.308655,"longitude":103.861929,"name":"Jorbb","category_code":"web","number_of_employees":3,"founded_year":2008}
{"city":"Treviso","country_code":"ITA","latitude":45.657409,"longitude":12.22861,"name":"Dooit","category_code":"software","number_of_employees":10,"founded_year":2008}
{"city":"Atlanta","country_code":"USA","latitude":33.834764,"longitude":-84.378116,"name":"SimpleLeap Software","category_code":"software","number_of_employees":2,"founded_year":2008}
{"city":"Berkeley","country_code":"USA","latitude":37.8650275,"longitude":-122.2987371,"name":"Shastic","category_code":"software","number_of_employees":4,"founded_year":2008}
{"city":"Austin","country_code":"USA","latitude":30.443493,"longitude":-97.77512,"name":"SnapPages","category_code":"web","number_of_employees":4,"founded_year":2008}
{"city":"Champaign","country_code":"USA","latitude":40.090392,"longitude":-88.239237,"name":"TickerGram","category_code":"web","number_of_employees":2,"founded_year":2008}
{"city":"Berlin","country_code":"DEU","latitude":52.583651,"longitude":13.285504,"name":"UpdateStar","category_code":"software","number_of_employees":5,"founded_year":2008}
{"city":"Sydney","country_code":"AUS","latitude":-33.867139,"longitude":151.207114,"name":"uTag","category_code":"web","number_of_employees":5,"founded_year":2008}
{"city":"San Francisco","country_code":"USA","latitude":37.764395,"longitude":-122.401024,"name":"Pixelpipe","category_code":"mobile","number_of_employees":10,"founded_year":2008}
{"city":"New York","country_code":"USA","latitude":40.741441,"longitude":-73.999675,"name":"Samepoint","category_code":"web","number_of_employees":5,"founded_year":2008}
{"city":"San Francisco","country_code":"USA","latitude":37.78691,"longitude":-122.404403,"name":"InnerRewards","category_code":"ecommerce","number_of_employees":9,"founded_year":2008}
{"city":"New York","country_code":"USA","latitude":40.741594,"longitude":-73.990468,"name":"InnerRewards","category_code":"ecommerce","number_of_employees":9,"founded_year":2008}
{"city":"Wincanton","country_code":"GBR","latitude":51.386522,"longitude":0.544338,"name":"Webtogs","category_code":"ecommerce","number_of_employees":8,"founded_year":2008}
{"city":"Prenton","country_code":"GBR","latitude":53.386432,"longitude":-3.036415,"name":"Treasuremytext","category_code":"mobile","number_of_employees":2,"founded_year":2008}
{"city":"New York","country_code":"USA","latitude":40.739867,"longitude":-73.990024,"name":"YellowSpaces","category_code":"web","number_of_employees":1,"founded_year":2008}
{"city":"Santa Barbara","country_code":"USA","latitude":34.4335255,"longitude":-119.8084281,"name":"RevJobs","category_code":"web","number_of_employees":1,"founded_year":2008}
{"city":"Los Angeles","country_code":"USA","latitude":34.070436,"longitude":-118.350486,"name":"Tubefilter","category_code":"games_video","number_of_employees":12,"founded_year":2008}
{"city":"Lake Arrowhead","country_code":"USA","latitude":34.265641,"longitude":-117.11359,"name":"Spellspace","category_code":"web","number_of_employees":2,"founded_year":2008}
{"city":"Toronto","country_code":"CAN","latitude":43.769574,"longitude":-79.411513,"name":"Classtell","category_code":"web","number_of_employees":1,"founded_year":2008}
{"city":"Paris","country_code":"FRA","latitude":48.8785721,"longitude":2.3249952,"name":"Orinea","category_code":"web","number_of_employees":5,"founded_year":2008}
{"city":"Casablanca, Maroc","country_code":"FRA","latitude":33.5922469,"longitude":-7.6332257,"name":"Orinea","category_code":"web","number_of_employees":5,"founded_year":2008}
{"city":"Worcester","country_code":"GBR","latitude":52.232349,"longitude":-2.26681,"name":"TheWebService","category_code":"web","number_of_employees":12,"founded_year":2008}
{"city":"Therwil","country_code":"CHE","latitude":47.377663,"longitude":8.527005,"name":"Millform","category_code":"mobile","number_of_employees":10,"founded_year":2008}
{"city":"Amsterdam","country_code":"NLD","latitude":52.3644743,"longitude":4.8926529,"name":"TwitterCounter","category_code":"web","number_of_employees":1,"founded_year":2008}
{"city":"Palo Alto","country_code":"USA","latitude":37.437328,"longitude":-122.159928,"name":"Snipd","category_code":"games_video","number_of_employees":2,"founded_year":2008}
{"city":"Austin","country_code":"USA","latitude":30.268735,"longitude":-97.745209,"name":"Snipd","category_code":"games_video","number_of_employees":2,"founded_year":2008}
{"city":"Milan","country_code":"ITA","latitude":45.507014,"longitude":9.2298577,"name":"Digital ReveNew","category_code":"consulting","number_of_employees":20,"founded_year":2008}
{"city":"Rome","country_code":"ITA","latitude":41.8975813,"longitude":12.4941336,"name":"Digital ReveNew","category_code":"consulting","number_of_employees":20,"founded_year":2008}
{"city":"Sunnyvale","country_code":"USA","latitude":37.424614,"longitude":-122.145153,"name":"vufind","category_code":"mobile","number_of_employees":7,"founded_year":2010}
{"city":"Newbury","country_code":"GBR","latitude":51.417565,"longitude":-1.313068,"name":"Groopi","category_code":"games_video","number_of_employees":1,"founded_year":2008}
{"city":"Toronto","country_code":"CAN","latitude":43.632844,"longitude":-79.554784,"name":"Strider SEO","category_code":"consulting","number_of_employees":3,"founded_year":2008}
{"city":"Woodbridge","country_code":"CAN","latitude":43.768232,"longitude":-79.611182,"name":"Strider SEO","category_code":"consulting","number_of_employees":3,"founded_year":2008}
{"city":"San Francisco","country_code":"USA","latitude":41.864917,"longitude":-87.625271,"name":"Poll Everywhere","category_code":"mobile","number_of_employees":20,"founded_year":2008}
{"city":"Washington","country_code":"USA","latitude":38.897976,"longitude":-77.028561,"name":"YadaHome","category_code":"network_hosting","number_of_employees":1,"founded_year":2008}
{"city":"Corby","country_code":"GBR","latitude":52.472029,"longitude":-0.698361,"name":"twit+","category_code":"games_video","number_of_employees":1,"founded_year":2008}
{"city":"Princeville","country_code":"USA","latitude":22.226745,"longitude":-159.480262,"name":"Plum Amazing","category_code":"software","number_of_employees":4,"founded_year":2008}
{"city":"Redmond","country_code":"USA","latitude":47.67356,"longitude":-122.133621,"name":"eTalkup","category_code":"web","number_of_employees":5,"founded_year":2008}
{"city":"Boulder","country_code":"USA","latitude":40.018145,"longitude":-105.278109,"name":"Occipital","category_code":"software","number_of_employees":9,"founded_year":2008}
{"city":"San Marcos","country_code":"USA","latitude":29.876617,"longitude":-97.940336,"name":"App Cubby","category_code":"mobile","number_of_employees":2,"founded_year":2008}
{"city":"Vienna","country_code":"AUT","latitude":48.182591,"longitude":16.357786,"name":"Cityflats4you","category_code":"web","number_of_employees":2,"founded_year":2008}
{"city":"San Francisco","country_code":"USA","latitude":37.782101,"longitude":-122.389519,"name":"Carticipate","category_code":"mobile","number_of_employees":3,"founded_year":2008}
{"city":"New Delhi","country_code":"IND","latitude":28.554777,"longitude":77.210726,"name":"Diditz","category_code":"network_hosting","number_of_employees":2,"founded_year":2008}
{"city":"Amsterdam","country_code":"NLD","latitude":52.352201,"longitude":4.890314,"name":"NewMarCom","category_code":"consulting","number_of_employees":1,"founded_year":2008}
{"city":"Chandler","country_code":"USA","latitude":33.3176,"longitude":-111.8566,"name":"cosinity","category_code":"web","number_of_employees":1,"founded_year":2008}
{"city":"Sausalito","country_code":"USA","latitude":37.864435,"longitude":-122.490586,"name":"Adgregate Markets","category_code":"ecommerce","number_of_employees":20,"founded_year":2008}
{"city":"Sunnyvale","country_code":"USA","latitude":37.384239,"longitude":-122.012475,"name":"iCharts","category_code":"analytics","number_of_employees":16,"founded_year":2008}
{"city":"San Diego","country_code":"USA","latitude":32.718834,"longitude":-117.163841,"name":"Galaxy","category_code":"software","number_of_employees":2,"founded_year":2008}
{"city":"San Francisco","country_code":"USA","latitude":37.80204,"longitude":-122.438231,"name":"plaYce","category_code":"games_video","number_of_employees":7,"founded_year":2008}
{"city":"St Charles","country_code":"USA","latitude":41.931912,"longitude":-88.294854,"name":"IdenIve","category_code":"web","number_of_employees":1,"founded_year":2008}
{"city":"New York","country_code":"USA","latitude":40.775309,"longitude":-73.983656,"name":"Producteev","category_code":"software","number_of_employees":10,"founded_year":2008}
{"city":"Palo Alto","country_code":"USA","latitude":37.448598,"longitude":-122.158497,"name":"Bojam","category_code":"games_video","number_of_employees":5,"founded_year":2008}
{"city":"San Francisco","country_code":"USA","latitude":37.794124,"longitude":-122.403223,"name":"Twonq","category_code":"web","number_of_employees":3,"founded_year":2008}
{"city":"Delft","country_code":"NLD","latitude":51.9973515,"longitude":4.3848574,"name":"Twonq","category_code":"web","number_of_employees":3,"founded_year":2008}
{"city":"Philadelphia","country_code":"USA","latitude":39.951639,"longitude":-75.163808,"name":"The Impartial Observer","category_code":"web","number_of_employees":4,"founded_year":2008}
{"city":"Brookline","country_code":"USA","latitude":42.342152,"longitude":-71.121625,"name":"PicMe","category_code":"software","number_of_employees":3,"founded_year":2008}
{"city":"Bangalore","country_code":"IND","latitude":12.971606,"longitude":77.594376,"name":"eLagaan","category_code":"web","number_of_employees":20,"founded_year":2008}
{"city":"Fremont","country_code":"USA","latitude":37.3110283,"longitude":-121.9501439,"name":"eLagaan","category_code":"web","number_of_employees":20,"founded_year":2008}
{"city":"","country_code":"USA","latitude":40.756054,"longitude":-73.986951,"name":"Papervitamins","category_code":"web","number_of_employees":2,"founded_year":2008}
{"city":"Yokohama","country_code":"JPN","latitude":35.4437078,"longitude":139.6380256,"name":"Papervitamins","category_code":"web","number_of_employees":2,"founded_year":2008}
{"city":"Poway","country_code":"USA","latitude":32.981201,"longitude":-117.062239,"name":"CropMom","category_code":"software","number_of_employees":3,"founded_year":2008}
{"city":"Los Gatos","country_code":"USA","latitude":37.228232,"longitude":-121.987122,"name":"911ice","category_code":"web","number_of_employees":4,"founded_year":2008}
{"city":"San Francisco","country_code":"USA","latitude":37.7753,"longitude":-122.4186,"name":"TopNotchThemes","category_code":"ecommerce","number_of_employees":5,"founded_year":2008}
{"city":"","country_code":"USA","latitude":40.822087,"longitude":-73.950677,"name":"Klatcher","category_code":"web","number_of_employees":5,"founded_year":2008}
{"city":"","country_code":"USA","latitude":44.528743,"longitude":-88.10135,"name":"Pepmall","category_code":"ecommerce","number_of_employees":2,"founded_year":2008}
{"city":"Charlotte","country_code":"USA","latitude":35.208745,"longitude":-80.83722,"name":"splaht!","category_code":"web","number_of_employees":2,"founded_year":2008}
{"city":"Madrid","country_code":"ESP","latitude":40.412323,"longitude":-3.703248,"name":"Daily Flat Rental","category_code":"ecommerce","number_of_employees":2,"founded_year":2008}
{"city":"Cupertino","country_code":"USA","latitude":37.323234,"longitude":-122.055177,"name":"Spare Change Payments","category_code":"web","number_of_employees":8,"founded_year":2008}
{"city":"Holly Springs","country_code":"USA","latitude":35.633134,"longitude":-78.862414,"name":"BrainyAtom","category_code":"ecommerce","number_of_employees":2,"founded_year":2008}
{"city":"Singapore","country_code":"SGP","latitude":1.308655,"longitude":103.861929,"name":"Jorbb","category_code":"web","number_of_employees":3,"founded_year":2008}
{"city":"Treviso","country_code":"ITA","latitude":45.657409,"longitude":12.22861,"name":"Dooit","category_code":"software","number_of_employees":10,"founded_year":2008}
{"city":"Atlanta","country_code":"USA","latitude":33.834764,"longitude":-84.378116,"name":"SimpleLeap Software","category_code":"software","number_of_employees":2,"founded_year":2008}
{"city":"Berkeley","country_code":"USA","latitude":37.8650275,"longitude":-122.2987371,"name":"Shastic","category_code":"software","number_of_employees":4,"founded_year":2008}
{"city":"Austin","country_code":"USA","latitude":30.443493,"longitude":-97.77512,"name":"SnapPages","category_code":"web","number_of_employees":4,"founded_year":2008}
{"city":"Champaign","country_code":"USA","latitude":40.090392,"longitude":-88.239237,"name":"TickerGram","category_code":"web","number_of_employees":2,"founded_year":2008}
{"city":"Berlin","country_code":"DEU","latitude":52.583651,"longitude":13.285504,"name":"UpdateStar","category_code":"software","number_of_employees":5,"founded_year":2008}
{"city":"Sydney","country_code":"AUS","latitude":-33.867139,"longitude":151.207114,"name":"uTag","category_code":"web","number_of_employees":5,"founded_year":2008}
{"city":"San Francisco","country_code":"USA","latitude":37.764395,"longitude":-122.401024,"name":"Pixelpipe","category_code":"mobile","number_of_employees":10,"founded_year":2008}
{"city":"New York","country_code":"USA","latitude":40.741441,"longitude":-73.999675,"name":"Samepoint","category_code":"web","number_of_employees":5,"founded_year":2008}
{"city":"San Francisco","country_code":"USA","latitude":37.78691,"longitude":-122.404403,"name":"InnerRewards","category_code":"ecommerce","number_of_employees":9,"founded_year":2008}
{"city":"New York","country_code":"USA","latitude":40.741594,"longitude":-73.990468,"name":"InnerRewards","category_code":"ecommerce","number_of_employees":9,"founded_year":2008}
{"city":"Wincanton","country_code":"GBR","latitude":51.386522,"longitude":0.544338,"name":"Webtogs","category_code":"ecommerce","number_of_employees":8,"founded_year":2008}
{"city":"Bonn","country_code":"DEU","latitude":50.710267,"longitude":7.066468,"name":"IT Stocklist","category_code":"web","number_of_employees":12,"founded_year":2008}
{"city":"Toronto","country_code":"CAN","latitude":43.708615,"longitude":-79.3891727,"name":"Rethink SEO","category_code":"consulting","number_of_employees":5,"founded_year":2008}
{"city":"Rotterdam","country_code":"NLD","latitude":51.906973,"longitude":4.463134,"name":"TimeRime","category_code":"web","number_of_employees":5,"founded_year":2008}
{"city":"Manhattan Beach","country_code":"USA","latitude":37.5758867,"longitude":-122.3277578,"name":"DealBase Corporation","category_code":"web","number_of_employees":3,"founded_year":2008}
{"city":"Jacksonville","country_code":"USA","latitude":30.310978,"longitude":-81.657707,"name":"Cliqset","category_code":"web","number_of_employees":5,"founded_year":2008}
{"city":"Aberdeen","country_code":"GBR","latitude":57.1254952,"longitude":-2.1334772,"name":"WWCTN","category_code":"web","number_of_employees":2,"founded_year":2008}
{"city":"Berkeley","country_code":"USA","latitude":37.871087,"longitude":-122.270913,"name":"Magoosh","category_code":"web","number_of_employees":13,"founded_year":2009}
{"city":"Plant City","country_code":"USA","latitude":28.007354,"longitude":-82.12341,"name":"iPads","category_code":"ecommerce","number_of_employees":2,"founded_year":2008}
{"city":"Pleasanton","country_code":"USA","latitude":37.639038,"longitude":-121.803522,"name":"NUresume","category_code":"web","number_of_employees":6,"founded_year":2008}
{"city":"","country_code":"USA","latitude":40.642591,"longitude":-73.974187,"name":"Curbsidebooty","category_code":"web","number_of_employees":2,"founded_year":2008}
{"city":"Redwood City","country_code":"USA","latitude":37.486368,"longitude":-122.230116,"name":"T-Cast Media Consulting","category_code":"consulting","number_of_employees":1,"founded_year":2008}
{"city":"New York","country_code":"USA","latitude":40.743157,"longitude":-74.006513,"name":"ecomii","category_code":"cleantech","number_of_employees":10,"founded_year":2008}
{"city":"St. Louis","country_code":"USA","latitude":38.627522,"longitude":-90.19841,"name":"Glued Network","category_code":"consulting","number_of_employees":2,"founded_year":2008}
{"city":"Toronto","country_code":"CAN","latitude":43.649017,"longitude":-79.375173,"name":"Linkbee","category_code":"web","number_of_employees":3,"founded_year":2008}
{"city":"Toledo","country_code":"USA","latitude":41.65292,"longitude":-83.577782,"name":"TWIOA","category_code":"games_video","number_of_employees":5,"founded_year":2008}
{"city":"Providence","country_code":"USA","latitude":41.8283241,"longitude":-71.4094864,"name":"DandyID","category_code":"web","number_of_employees":3,"founded_year":2008}
{"city":"Austin","country_code":"USA","latitude":30.268735,"longitude":-97.745209,"name":"PeoplePad","category_code":"web","number_of_employees":10,"founded_year":2008}
{"city":"Richmond","country_code":"USA","latitude":37.573792,"longitude":-77.37613,"name":"Mobelux","category_code":"software","number_of_employees":2,"founded_year":2008}
{"city":"Albuquerque","country_code":"USA","latitude":35.131172,"longitude":-106.520846,"name":"LoadStorm","category_code":"web","number_of_employees":4,"founded_year":2008}
{"city":"Austin","country_code":"USA","latitude":30.290699,"longitude":-97.750885,"name":"BuzzStream","category_code":"software","number_of_employees":8,"founded_year":2008}
{"city":"Seattle","country_code":"USA","latitude":47.627368,"longitude":-122.34229,"name":"findwell","category_code":"web","number_of_employees":7,"founded_year":2008}
{"city":"Sunnyvale","country_code":"USA","latitude":37.392268,"longitude":-121.991438,"name":"BuzzBuy","category_code":"ecommerce","number_of_employees":4,"founded_year":2008}
{"city":"Paris","country_code":"FRA","latitude":48.871174,"longitude":2.308019,"name":"Calameo","category_code":"web","number_of_employees":10,"founded_year":2008}
{"city":"Flowermound","country_code":"USA","latitude":29.550027,"longitude":-95.693347,"name":"ReplayGamez","category_code":"games_video","number_of_employees":10,"founded_year":2008}
{"city":"Dublin","country_code":"IRL","latitude":53.336139,"longitude":-6.249789,"name":"IGOpeople","category_code":"network_hosting","number_of_employees":4,"founded_year":2008}
{"city":"Toronto","country_code":"CAN","latitude":43.647,"longitude":-79.394325,"name":"fotoglif","category_code":"web","number_of_employees":6,"founded_year":2008}
{"city":"Miami","country_code":"USA","latitude":25.733027,"longitude":-80.432061,"name":"Denook","category_code":"games_video","number_of_employees":2,"founded_year":2008}
{"city":"BIDART","country_code":"FRA","latitude":43.4477272,"longitude":-1.5555799,"name":"iKlax Media","category_code":"software","number_of_employees":7,"founded_year":2008}
{"city":"Brea","country_code":"USA","latitude":33.9266484,"longitude":-117.8771193,"name":"TVLesson","category_code":"web","number_of_employees":18,"founded_year":2008}
{"city":"Toronto","country_code":"CAN","latitude":43.678782,"longitude":-79.439315,"name":"Vengeo","category_code":"software","number_of_employees":13,"founded_year":2008}
{"city":"Portland","country_code":"USA","latitude":45.529907,"longitude":-122.682376,"name":"FanSpan","category_code":"web","number_of_employees":2,"founded_year":2008}
{"city":"Budapest","country_code":"HUN","latitude":47.420458,"longitude":19.026118,"name":"NessDex","category_code":"web","number_of_employees":2,"founded_year":2008}
{"city":"Rotterdam","country_code":"NLD","latitude":51.920151,"longitude":4.480165,"name":"Expand Online","category_code":"consulting","number_of_employees":20,"founded_year":2008}
{"city":"Barrie,","country_code":"CAN","latitude":44.371496,"longitude":-79.668813,"name":"VIrtualVu","category_code":"web","number_of_employees":10,"founded_year":2008}
{"city":"Los Angeles","country_code":"USA","latitude":42.2802675,"longitude":-83.7420579,"name":"Mybandstock","category_code":"games_video","number_of_employees":19,"founded_year":2009}
{"city":"Campbell","country_code":"USA","latitude":37.280584,"longitude":-121.954985,"name":"Karmerd","category_code":"network_hosting","number_of_employees":1,"founded_year":2008}
{"city":"Spring Hill","country_code":"USA","latitude":28.552044,"longitude":-82.55582,"name":"Bleacher Advisor","category_code":"web","number_of_employees":1,"founded_year":2008}
{"city":"New York","country_code":"USA","latitude":40.740941,"longitude":-73.992609,"name":"Buzzr","category_code":"software","number_of_employees":5,"founded_year":2008}
{"city":"Johannesburg","country_code":"ZAF","latitude":-26.6401,"longitude":27.9361,"name":"Engineering Ideas","category_code":"consulting","number_of_employees":3,"founded_year":2008}
{"city":"Boston","country_code":"USA","latitude":41.587539,"longitude":-93.625499,"name":"Pongr","category_code":"software","number_of_employees":20,"founded_year":2008}
{"city":"Des Moines","country_code":"USA","latitude":42.3513279,"longitude":-71.0766717,"name":"Pongr","category_code":"software","number_of_employees":20,"founded_year":2008}
{"city":"Milwaukee","country_code":"USA","latitude":43.097697,"longitude":-87.895093,"name":"StellarSurvey","category_code":"software","number_of_employees":5,"founded_year":2008}
{"city":"Cesson S\u00c3\u00a9vign\u00c3\u00a9","country_code":"FRA","latitude":48.10583,"longitude":-1.611882,"name":"Maptimize","category_code":"web","number_of_employees":3,"founded_year":2008}
{"city":"San Francisco","country_code":"USA","latitude":39.9052263,"longitude":-86.0547016,"name":"Formspring","category_code":"web","number_of_employees":19,"founded_year":2009}
{"city":"New York","country_code":"USA","latitude":40.740145,"longitude":-73.985207,"name":"RGA Advisors, LLC","category_code":"consulting","number_of_employees":10,"founded_year":2008}
{"city":"Great Neck","country_code":"USA","latitude":40.784463,"longitude":-73.709665,"name":"RGA Advisors, LLC","category_code":"consulting","number_of_employees":10,"founded_year":2008}
{"city":"Toronto","country_code":"CAN","latitude":43.769479,"longitude":-79.44182,"name":"UptimeArchive","category_code":"web","number_of_employees":5,"founded_year":2008}
{"city":"Lisbon","country_code":"PRT","latitude":38.7071631,"longitude":-9.135517,"name":"FACEinHOLE","category_code":"web","number_of_employees":4,"founded_year":2008}
{"city":"Kiel","country_code":"DEU","latitude":54.339238,"longitude":10.1330337,"name":"friendmee","category_code":"network_hosting","number_of_employees":1,"founded_year":2008}
{"city":"Vancouver","country_code":"CAN","latitude":49.263588,"longitude":-123.138565,"name":"Sonichall","category_code":"games_video","number_of_employees":2,"founded_year":2008}
{"city":"New York","country_code":"USA","latitude":40.76945,"longitude":-73.951865,"name":"CarZen","category_code":"web","number_of_employees":5,"founded_year":2008}
{"city":"Abergavenny","country_code":"GBR","latitude":51.824849,"longitude":-3.020908,"name":"Blog to it","category_code":"web","number_of_employees":1,"founded_year":2008}
{"city":"Mandeville","country_code":"USA","latitude":29.973994,"longitude":-90.082202,"name":"Dukky","category_code":"analytics","number_of_employees":15,"founded_year":2008}
{"city":"Mountain View","country_code":"USA","latitude":44.868986,"longitude":-93.324191,"name":"Tidalwave Trader","category_code":"web","number_of_employees":5,"founded_year":2008}
{"city":"Bretten","country_code":"DEU","latitude":49.03767,"longitude":8.714079,"name":"telewebber","category_code":"games_video","number_of_employees":3,"founded_year":2008}
{"city":"Utrecht","country_code":"NLD","latitude":52.087496,"longitude":5.134585,"name":"Clubbyclub","category_code":"network_hosting","number_of_employees":5,"founded_year":2008}
{"city":"Dubai","country_code":"ARE","latitude":25.271139,"longitude":55.307485,"name":"eMapia","category_code":"ecommerce","number_of_employees":4,"founded_year":2008}
{"city":"Quebec","country_code":"CAN","latitude":46.8081938,"longitude":-71.2373393,"name":"Star Fever Agency","category_code":"games_video","number_of_employees":5,"founded_year":2009}
{"city":"San Jose","country_code":"USA","latitude":37.320006,"longitude":-121.880958,"name":"CityPorters","category_code":"web","number_of_employees":2,"founded_year":2008}
{"city":"Chicago","country_code":"USA","latitude":41.8790291,"longitude":-87.6385324,"name":"GC Marshall","category_code":"consulting","number_of_employees":1,"founded_year":2008}
{"city":"Moraga","country_code":"USA","latitude":37.860866,"longitude":-122.129671,"name":"Rubysophic","category_code":"software","number_of_employees":5,"founded_year":2008}
{"city":"New York","country_code":"USA","latitude":40.707268,"longitude":-74.001724,"name":"Cookstr","category_code":"web","number_of_employees":10,"founded_year":2008}
{"city":"Dulles","country_code":"USA","latitude":39.032142,"longitude":-77.423837,"name":"IFXworks","category_code":"consulting","number_of_employees":4,"founded_year":2008}
{"city":"Quebec","country_code":"CAN","latitude":46.812754,"longitude":-71.215223,"name":"PornLikeThat","category_code":"software","number_of_employees":1,"founded_year":2008}
{"city":"San Francisco","country_code":"USA","latitude":37.792303,"longitude":-122.423132,"name":"Tivix","category_code":"software","number_of_employees":18,"founded_year":2008}
{"city":"San Francisco","country_code":"USA","latitude":37.781262,"longitude":-122.394958,"name":"Virgance","category_code":"web","number_of_employees":15,"founded_year":2008}
{"city":"Los Angeles","country_code":"USA","latitude":34.024817,"longitude":-118.295117,"name":"booksRhere","category_code":"web","number_of_employees":1,"founded_year":2008}
{"city":"Ashland","country_code":"USA","latitude":42.183715,"longitude":-122.6883052,"name":"NewDocs","category_code":"web","number_of_employees":3,"founded_year":2008}
{"city":"San Francisco","country_code":"USA","latitude":37.775196,"longitude":-122.419204,"name":"148Apps","category_code":"software","number_of_employees":1,"founded_year":2008}
{"city":"Denver","country_code":"USA","latitude":39.766292,"longitude":-104.900722,"name":"Mondo Food","category_code":"ecommerce","number_of_employees":2,"founded_year":2008}
{"city":"Soquel","country_code":"USA","latitude":37.0391044,"longitude":-121.958687,"name":"ForGrabs","category_code":"web","number_of_employees":5,"founded_year":2008}
{"city":"Bangalore","country_code":"IND","latitude":12.9561278,"longitude":77.5922642,"name":"Aghreni Technologies","category_code":"software","number_of_employees":15,"founded_year":2008}
{"city":"New York","country_code":"USA","latitude":40.744549,"longitude":-73.988071,"name":"Aghreni Technologies","category_code":"software","number_of_employees":15,"founded_year":2008}
{"city":"Toronto","country_code":"CAN","latitude":43.6453258,"longitude":-79.3956689,"name":"Daily Challenge","category_code":"network_hosting","number_of_employees":7,"founded_year":2008}
{"city":"Vancouver","country_code":"CAN","latitude":49.263588,"longitude":-123.138565,"name":"DreamBank","category_code":"web","number_of_employees":10,"founded_year":2008}
{"city":"Darlinghurst","country_code":"AUS","latitude":-33.8719926,"longitude":151.1936039,"name":"Allure Media","category_code":"web","number_of_employees":15,"founded_year":2008}
{"city":"Atlanta","country_code":"USA","latitude":33.961646,"longitude":-84.368975,"name":"ZOOZ Mobile","category_code":"games_video","number_of_employees":5,"founded_year":2008}
{"city":"Brussels","country_code":"BEL","latitude":50.7963208,"longitude":4.401195,"name":"Commentag","category_code":"web","number_of_employees":3,"founded_year":2008}
{"city":"Spring Hill","country_code":"USA","latitude":28.4370407,"longitude":-82.490137,"name":"Dorman Media","category_code":"web","number_of_employees":1,"founded_year":2008}
{"city":"Grand Rapids","country_code":"USA","latitude":42.9608776,"longitude":-85.6734906,"name":"Ascribe","category_code":"software","number_of_employees":9,"founded_year":2008}
{"city":"Sacramento","country_code":"USA","latitude":38.517538,"longitude":-121.481826,"name":"Balsamiq","category_code":"web","number_of_employees":9,"founded_year":2008}
{"city":"Bangalore, Karnataka","country_code":"IND","latitude":12.9737322,"longitude":77.5384384,"name":"Innoz","category_code":"mobile","number_of_employees":5,"founded_year":2008}
{"city":"Miami","country_code":"USA","latitude":25.769174,"longitude":-80.331681,"name":"Aligned Global","category_code":"software","number_of_employees":15,"founded_year":2008}
{"city":"Bournemouth","country_code":"GBR","latitude":50.7229432,"longitude":-1.8813105,"name":"myJournal","category_code":"network_hosting","number_of_employees":8,"founded_year":2008}
{"city":"Austin","country_code":"USA","latitude":30.4156188,"longitude":-97.8014482,"name":"Saltlick Labs","category_code":"mobile","number_of_employees":3,"founded_year":2008}
{"city":"Sydney","country_code":"AUS","latitude":-33.867139,"longitude":151.207114,"name":"Saltlick Labs","category_code":"mobile","number_of_employees":3,"founded_year":2008}
{"city":"Los Angeles","country_code":"USA","latitude":34.052187,"longitude":-118.243425,"name":"Saltlick Labs","category_code":"mobile","number_of_employees":3,"founded_year":2008}
{"city":"Manchester","country_code":"GBR","latitude":53.4837067,"longitude":-2.2439492,"name":"Clowdy","category_code":"web","number_of_employees":11,"founded_year":2013}
{"city":"Mountain View","country_code":"USA","latitude":37.400465,"longitude":-122.073003,"name":"Fuzzyshot","category_code":"mobile","number_of_employees":3,"founded_year":2008}
{"city":"Louvain-la-Neuve   ,Ottignies","country_code":"BEL","latitude":50.6713314,"longitude":4.6102492,"name":"iStockCV","category_code":"web","number_of_employees":1,"founded_year":2008}
{"city":"Salt Lake City","country_code":"USA","latitude":40.645225,"longitude":-111.967798,"name":"SocialToo","category_code":"web","number_of_employees":2,"founded_year":2008}
{"city":"Macon","country_code":"USA","latitude":32.850489,"longitude":-83.674786,"name":"DoggieInk","category_code":"web","number_of_employees":6,"founded_year":2008}
{"city":"Vancouver","country_code":"CAN","latitude":49.2812342,"longitude":-123.1043395,"name":"Oggle Interactive","category_code":"software","number_of_employees":4,"founded_year":2008}
{"city":"Laval","country_code":"CAN","latitude":45.5411602,"longitude":-73.7481222,"name":"InnovSoft Consulting Limited","category_code":"games_video","number_of_employees":7,"founded_year":2008}
{"city":"Toronto","country_code":"CAN","latitude":43.8102632,"longitude":-79.2202391,"name":"AndSpot","category_code":"mobile","number_of_employees":6,"founded_year":2008}
{"city":"Las Vegas","country_code":"USA","latitude":36.1807572,"longitude":-115.242203,"name":"Herrmann NA","category_code":"web","number_of_employees":4,"founded_year":2008}
{"city":"Berkeley","country_code":"USA","latitude":37.870457,"longitude":-122.268354,"name":"Carsala","category_code":"web","number_of_employees":8,"founded_year":2009}
{"city":"Paris","country_code":"FRA","latitude":48.8566667,"longitude":2.3509871,"name":"Tiiptop","category_code":"web","number_of_employees":3,"founded_year":2008}
{"city":"Langley","country_code":"CAN","latitude":49.1261967,"longitude":-122.6643702,"name":"GoalsOnTrack","category_code":"software","number_of_employees":2,"founded_year":2008}
{"city":"Tulsa","country_code":"USA","latitude":36.0179373,"longitude":-95.8685249,"name":"Raffstar","category_code":"web","number_of_employees":4,"founded_year":2008}
{"city":"Bristol","country_code":"GBR","latitude":51.4749263,"longitude":-2.6136797,"name":"Speedchecker","category_code":"web","number_of_employees":2,"founded_year":2008}
{"city":"San Francisco","country_code":"USA","latitude":32.718834,"longitude":-117.163841,"name":"ZingSale","category_code":"ecommerce","number_of_employees":2,"founded_year":2008}
{"city":"Santa Ana","country_code":"USA","latitude":33.69568,"longitude":-117.866187,"name":"1DayMakeover","category_code":"ecommerce","number_of_employees":6,"founded_year":2008}
{"city":"Toronto","country_code":"CAN","latitude":43.670233,"longitude":-79.386755,"name":"Blue Parabola","category_code":"consulting","number_of_employees":3,"founded_year":2008}
{"city":"Romsey","country_code":"GBR","latitude":50.9991134,"longitude":-1.4750789,"name":"utopia 365","category_code":"mobile","number_of_employees":2,"founded_year":2008}
{"city":"Vancouver","country_code":"CAN","latitude":49.263588,"longitude":-123.138565,"name":"Pinota","category_code":"mobile","number_of_employees":3,"founded_year":2008}
{"city":"Roswell","country_code":"USA","latitude":34.018504,"longitude":-84.377834,"name":"PostMapper","category_code":"web","number_of_employees":1,"founded_year":2008}
{"city":"Lillehammer","country_code":"NOR","latitude":61.1026207,"longitude":10.5077091,"name":"Nylvi","category_code":"ecommerce","number_of_employees":4,"founded_year":2008}
{"city":"Berlin","country_code":"DEU","latitude":52.5297341,"longitude":13.4101097,"name":"Nylvi","category_code":"ecommerce","number_of_employees":4,"founded_year":2008}
{"city":"Tulsa","country_code":"USA","latitude":36.0463849,"longitude":-95.9550264,"name":"mobiManage","category_code":"mobile","number_of_employees":15,"founded_year":2008}
{"city":"Scottsdale","country_code":"USA","latitude":33.502612,"longitude":-111.9315649,"name":"mobiManage","category_code":"mobile","number_of_employees":15,"founded_year":2008}
{"city":"Evanston","country_code":"USA","latitude":42.062669,"longitude":-87.720068,"name":"Ethervision","category_code":"consulting","number_of_employees":5,"founded_year":2008}
{"city":"Seattle","country_code":"USA","latitude":47.6254784,"longitude":-122.3564234,"name":"Valu Valu","category_code":"games_video","number_of_employees":3,"founded_year":2008}
{"city":"New York","country_code":"USA","latitude":40.756054,"longitude":-73.986951,"name":"People Capital","category_code":"web","number_of_employees":10,"founded_year":2008}
{"city":"San Mateo","country_code":"USA","latitude":37.5349925,"longitude":-122.3050823,"name":"Fitnio","category_code":"software","number_of_employees":3,"founded_year":2008}
{"city":"Raleigh","country_code":"USA","latitude":35.956609,"longitude":-78.698154,"name":"b2b2dot0","category_code":"ecommerce","number_of_employees":5,"founded_year":2008}
{"city":"Singapore","country_code":"SGP","latitude":1.279684,"longitude":103.842646,"name":"JobsTAXI","category_code":"web","number_of_employees":12,"founded_year":2008}
{"city":"Amsterdam","country_code":"NLD","latitude":52.342938,"longitude":4.8419083,"name":"Gemzies","category_code":"games_video","number_of_employees":3,"founded_year":2008}
{"city":"cedex","country_code":"FRA","latitude":49.5332371,"longitude":2.1346593,"name":"Planzone","category_code":"software","number_of_employees":17,"founded_year":2008}
{"city":"Oakland","country_code":"USA","latitude":37.82043,"longitude":-122.195779,"name":"Montclair Advisors","category_code":"consulting","number_of_employees":5,"founded_year":2008}
{"city":"Palo Alto","country_code":"USA","latitude":37.8097439,"longitude":-121.9909454,"name":"MarketRiders","category_code":"web","number_of_employees":4,"founded_year":2008}
{"city":"Baltimore","country_code":"USA","latitude":39.30677,"longitude":-76.614442,"name":"Guaranteach","category_code":"web","number_of_employees":7,"founded_year":2008}
{"city":"Longmont","country_code":"USA","latitude":29.759956,"longitude":-95.362534,"name":"SHUB","category_code":"mobile","number_of_employees":2,"founded_year":2008}
{"city":"Leuven","country_code":"BEL","latitude":50.867206,"longitude":4.700737,"name":"TrackMyPeople","category_code":"web","number_of_employees":3,"founded_year":2008}
{"city":"Dallas","country_code":"USA","latitude":32.781078,"longitude":-96.797111,"name":"Renterval","category_code":"web","number_of_employees":2,"founded_year":2008}
{"city":"Omaha","country_code":"USA","latitude":41.2437917,"longitude":-96.0172896,"name":"Tellwiki","category_code":"web","number_of_employees":3,"founded_year":2008}
{"city":"Brooklyn","country_code":"USA","latitude":40.702692,"longitude":-73.989613,"name":"gliider","category_code":"web","number_of_employees":5,"founded_year":2008}
{"city":"Cork","country_code":"IRL","latitude":52.6423449,"longitude":-8.5878882,"name":"Weddingdates","category_code":"web","number_of_employees":2,"founded_year":2008}
{"city":"San Francisco","country_code":"USA","latitude":37.7890183,"longitude":-122.3915063,"name":"Circle of Moms","category_code":"web","number_of_employees":9,"founded_year":2008}
{"city":"London","country_code":"GBR","latitude":51.5206245,"longitude":-0.1168286,"name":"Skipso","category_code":"cleantech","number_of_employees":7,"founded_year":2008}
{"city":"Gijon","country_code":"ESP","latitude":43.5222205,"longitude":-5.665828,"name":"Heralsoft","category_code":"web","number_of_employees":2,"founded_year":2008}
{"city":"Seattle","country_code":"USA","latitude":61.216583,"longitude":-149.899597,"name":"Social1000","category_code":"network_hosting","number_of_employees":1,"founded_year":2009}
{"city":"Seattle","country_code":"USA","latitude":47.5990906,"longitude":-122.335109,"name":"able2know","category_code":"web","number_of_employees":5,"founded_year":2008}
{"city":"Elmhurst","country_code":"USA","latitude":41.8793918,"longitude":-87.9614042,"name":"Shortlister","category_code":"ecommerce","number_of_employees":2,"founded_year":2008}
{"city":"Berlin","country_code":"DEU","latitude":52.5273098,"longitude":13.3922487,"name":"TRIBAX","category_code":"network_hosting","number_of_employees":12,"founded_year":2008}
{"city":"New York","country_code":"USA","latitude":40.756054,"longitude":-73.986951,"name":"Livekick","category_code":"web","number_of_employees":4,"founded_year":2009}
{"city":"Amsterdam","country_code":"NLD","latitude":52.3630898,"longitude":4.8920901,"name":"Twones","category_code":"games_video","number_of_employees":6,"founded_year":2008}
{"city":"Barcelona","country_code":"ESP","latitude":41.4241228,"longitude":2.1634249,"name":"Tengaged","category_code":"games_video","number_of_employees":1,"founded_year":2010}
{"city":"Boston","country_code":"USA","latitude":42.376862,"longitude":-71.14462,"name":"Drync","category_code":"mobile","number_of_employees":8,"founded_year":2008}
{"city":"Helsinki","country_code":"FIN","latitude":60.167909,"longitude":24.9639412,"name":"Redriever","category_code":"mobile","number_of_employees":6,"founded_year":2008}
{"city":"","country_code":"CAN","latitude":43.4608103,"longitude":-79.7441633,"name":"Redriever","category_code":"mobile","number_of_employees":6,"founded_year":2008}
{"city":"San Franciso","country_code":"USA","latitude":37.794891,"longitude":-122.397901,"name":"Zentact","category_code":"network_hosting","number_of_employees":2,"founded_year":2008}
{"city":"Cupertino","country_code":"USA","latitude":37.3183828,"longitude":-122.0304277,"name":"Voyij","category_code":"web","number_of_employees":4,"founded_year":2008}
{"city":"Newport Beach","country_code":"USA","latitude":33.6187,"longitude":-117.9283,"name":"Utxtud8","category_code":"mobile","number_of_employees":5,"founded_year":2008}
{"city":"Tampa","country_code":"USA","latitude":27.98141,"longitude":-82.451141,"name":"Know Your Venue","category_code":"games_video","number_of_employees":2,"founded_year":2008}
{"city":"Erie","country_code":"USA","latitude":42.1119336,"longitude":-80.1261226,"name":"Diverse Ventures","category_code":"web","number_of_employees":4,"founded_year":2008}
{"city":"Palo Alto","country_code":"USA","latitude":37.4417,"longitude":-122.1417,"name":"Webzzle","category_code":"web","number_of_employees":10,"founded_year":2008}
{"city":"Paris","country_code":"FRA","latitude":43.1677247,"longitude":0.4198481,"name":"Webzzle","category_code":"web","number_of_employees":10,"founded_year":2008}
{"city":"Milpitas","country_code":"USA","latitude":37.400489,"longitude":-121.915037,"name":"Mobizim","category_code":"mobile","number_of_employees":3,"founded_year":2008}
{"city":"Kansas City","country_code":"USA","latitude":39.0587186,"longitude":-94.6084479,"name":"Orbis Biosciences","category_code":"biotech","number_of_employees":4,"founded_year":2008}
{"city":"Portland","country_code":"USA","latitude":45.523875,"longitude":-122.670399,"name":"CitySpeek","category_code":"web","number_of_employees":2,"founded_year":2008}
{"city":"","country_code":"CAN","latitude":49.263588,"longitude":-123.138565,"name":"MPLOYR","category_code":"web","number_of_employees":2,"founded_year":2008}
{"city":"Pompano Beach","country_code":"USA","latitude":26.2480738,"longitude":-80.135487,"name":"Reachoo","category_code":"software","number_of_employees":3,"founded_year":2010}
{"city":"IRVINGTON","country_code":"USA","latitude":40.727533,"longitude":-74.230704,"name":"popdat","category_code":"web","number_of_employees":10,"founded_year":2008}
{"city":"Costa Mesa","country_code":"USA","latitude":33.6396749,"longitude":-117.9416077,"name":"ZimpleMoney","category_code":"software","number_of_employees":8,"founded_year":2008}
{"city":"Indianapolis","country_code":"USA","latitude":39.850348,"longitude":-86.120971,"name":"Professional Blog Service","category_code":"web","number_of_employees":4,"founded_year":2008}
{"city":"seattle","country_code":"USA","latitude":47.620973,"longitude":-122.347276,"name":"Stax Networks","category_code":"web","number_of_employees":8,"founded_year":2008}
{"city":"Oakland","country_code":"USA","latitude":37.81098,"longitude":-122.265978,"name":"FilmSuggest","category_code":"games_video","number_of_employees":2,"founded_year":2008}
{"city":"San Diego","country_code":"USA","latitude":32.7161896,"longitude":-117.168697,"name":"StockTwits","category_code":"web","number_of_employees":12,"founded_year":2008}
{"city":"Seefeld","country_code":"DEU","latitude":48.0387806,"longitude":11.1974291,"name":"FutureTap","category_code":"software","number_of_employees":1,"founded_year":2008}
{"city":"Tartu","country_code":"EST","latitude":58.3820245,"longitude":26.7229199,"name":"Krabi ja Mask","category_code":"software","number_of_employees":4,"founded_year":2008}
{"city":"San Francisco","country_code":"USA","latitude":37.8053241,"longitude":-122.4052761,"name":"Indee","category_code":"games_video","number_of_employees":3,"founded_year":2010}
{"city":"Seattle","country_code":"USA","latitude":47.6042663,"longitude":-122.3328401,"name":"Implied Solutions","category_code":"software","number_of_employees":1,"founded_year":2008}
{"city":"Cologne","country_code":"DEU","latitude":50.9471389,"longitude":6.9410409,"name":"CtoJ","category_code":"consulting","number_of_employees":4,"founded_year":2008}
{"city":"Ankara","country_code":"TUR","latitude":39.898894,"longitude":32.774928,"name":"Userspots","category_code":"consulting","number_of_employees":4,"founded_year":2008}
{"city":"Old Bridge","country_code":"USA","latitude":37.7181398,"longitude":-122.4863492,"name":"xzapps","category_code":"software","number_of_employees":2,"founded_year":2008}
{"city":"Miami","country_code":"USA","latitude":25.841678,"longitude":-80.191821,"name":"MixMyGranola","category_code":"web","number_of_employees":3,"founded_year":2008}
{"city":"Beverly Hills","country_code":"USA","latitude":34.066118,"longitude":-118.378606,"name":"Remixin","category_code":"games_video","number_of_employees":2,"founded_year":2008}
{"city":"","country_code":"SGP","latitude":1.3523202,"longitude":103.8422526,"name":"mTelematics","category_code":"mobile","number_of_employees":10,"founded_year":2008}
{"city":"Copley","country_code":"USA","latitude":41.1208235,"longitude":-81.6643523,"name":"Jobvue","category_code":"games_video","number_of_employees":1,"founded_year":2008}
{"city":"Denver","country_code":"USA","latitude":39.3926188,"longitude":-104.8943767,"name":"espor","category_code":"software","number_of_employees":19,"founded_year":2008}
{"city":"Santa Monica","country_code":"USA","latitude":34.0028373,"longitude":-118.4844228,"name":"Tsavo Agency","category_code":"web","number_of_employees":15,"founded_year":2008}
{"city":"Great Falls","country_code":"USA","latitude":39.012377,"longitude":-77.293817,"name":"C2G","category_code":"web","number_of_employees":5,"founded_year":2008}
{"city":"Atlanta","country_code":"USA","latitude":33.922157,"longitude":-84.335965,"name":"MediaWheel","category_code":"web","number_of_employees":7,"founded_year":2008}
{"city":"Philadelphia","country_code":"USA","latitude":39.9443552,"longitude":-75.1257381,"name":"RJMetrics","category_code":"software","number_of_employees":20,"founded_year":2008}
{"city":"Ringwood, Hampshire","country_code":"GBR","latitude":50.841938,"longitude":-1.7884785,"name":"GymFu","category_code":"web","number_of_employees":3,"founded_year":2009}
{"city":"New York","country_code":"USA","latitude":40.5889016,"longitude":-73.9447994,"name":"Do You Wanna Hook Up?","category_code":"web","number_of_employees":3,"founded_year":2009}
{"city":"Austin","country_code":"USA","latitude":30.2019822,"longitude":-97.8781376,"name":"Deal Linker","category_code":"ecommerce","number_of_employees":1,"founded_year":2008}
{"city":"Torreon, Coahuila","country_code":"MEX","latitude":25.5230058,"longitude":-103.4174464,"name":"facelovefinder","category_code":"web","number_of_employees":1,"founded_year":2009}
{"city":"Paris","country_code":"FRA","latitude":48.8566667,"longitude":2.3509871,"name":"Vibeex","category_code":"games_video","number_of_employees":1,"founded_year":2008}
{"city":"Mountain View","country_code":"USA","latitude":37.384297,"longitude":-122.072998,"name":"CureTogether","category_code":"web","number_of_employees":3,"founded_year":2008}
{"city":"Hoboken","country_code":"USA","latitude":40.7370784,"longitude":-74.0348315,"name":"IAmInTown","category_code":"web","number_of_employees":3,"founded_year":2008}
{"city":"London","country_code":"GBR","latitude":51.5374249,"longitude":-0.2065907,"name":"Demotix","category_code":"web","number_of_employees":8,"founded_year":2008}
{"city":"Leawood","country_code":"USA","latitude":38.93842,"longitude":-94.616021,"name":"TwittBot","category_code":"web","number_of_employees":1,"founded_year":2008}
{"city":"Van Nuys","country_code":"USA","latitude":40.650291,"longitude":-74.294395,"name":"eCampusCash","category_code":"web","number_of_employees":3,"founded_year":2010}
{"city":"Le Bourget du lac","country_code":"FRA","latitude":45.646721,"longitude":5.8707318,"name":"Ricochets Interactive","category_code":"consulting","number_of_employees":3,"founded_year":2008}
{"city":"London","country_code":"GBR","latitude":51.5001524,"longitude":-0.1262362,"name":"CareerPlayer","category_code":"games_video","number_of_employees":5,"founded_year":2008}
{"city":"Exeter","country_code":"GBR","latitude":50.7492228,"longitude":-3.4934555,"name":"Bid for Wine","category_code":"ecommerce","number_of_employees":3,"founded_year":2008}
{"city":"Wheeling","country_code":"USA","latitude":40.0676659,"longitude":-80.7237385,"name":"iugo","category_code":"software","number_of_employees":5,"founded_year":2008}
{"city":"Philadelphia","country_code":"USA","latitude":40.032121,"longitude":-75.191867,"name":"iugo","category_code":"software","number_of_employees":5,"founded_year":2008}
{"city":"Franklin","country_code":"USA","latitude":35.933677,"longitude":-86.856457,"name":"MacMedic PRO","category_code":"consulting","number_of_employees":1,"founded_year":2008}
{"city":"Jackson","country_code":"USA","latitude":43.479618,"longitude":-110.762347,"name":"Pixel Spills","category_code":"consulting","number_of_employees":1,"founded_year":2008}
{"city":"Maastricht","country_code":"NLD","latitude":50.8498466,"longitude":5.6872594,"name":"Storytlr","category_code":"network_hosting","number_of_employees":2,"founded_year":2008}
{"city":"Liege","country_code":"BEL","latitude":50.6406495,"longitude":5.5720466,"name":"Storytlr","category_code":"network_hosting","number_of_employees":2,"founded_year":2008}
{"city":"London","country_code":"GBR","latitude":51.4944999,"longitude":-0.1479318,"name":"Kramaley Games","category_code":"games_video","number_of_employees":5,"founded_year":2008}
{"city":"Huntington Beach","country_code":"USA","latitude":33.742397,"longitude":-118.033495,"name":"Lymabean","category_code":"web","number_of_employees":4,"founded_year":2008}
{"city":"Dublin","country_code":"IRL","latitude":53.344104,"longitude":-6.2674937,"name":"ZeroTouch","category_code":"consulting","number_of_employees":5,"founded_year":2008}
{"city":"Amherst","country_code":"USA","latitude":42.3756007,"longitude":-72.4436464,"name":"Otalo","category_code":"web","number_of_employees":2,"founded_year":2009}
{"city":"Chirens","country_code":"FRA","latitude":45.4092403,"longitude":5.5511813,"name":"Digiprof","category_code":"games_video","number_of_employees":1,"founded_year":2008}
{"city":"Troy","country_code":"USA","latitude":43.88487,"longitude":-85.794905,"name":"Flowz","category_code":"web","number_of_employees":4,"founded_year":2008}
{"city":"Charlotte","country_code":"USA","latitude":35.058275,"longitude":-80.776641,"name":"ORY Software","category_code":"web","number_of_employees":1,"founded_year":2008}
{"city":"Palo Alto","country_code":"USA","latitude":37.4459832,"longitude":-122.1490582,"name":"Trutoon","category_code":"web","number_of_employees":5,"founded_year":2008}
{"city":"Houston","country_code":"USA","latitude":29.714229,"longitude":-95.527479,"name":"Digital Meld","category_code":"web","number_of_employees":5,"founded_year":2009}
{"city":"Helsinki","country_code":"FIN","latitude":60.206789,"longitude":24.9754678,"name":"One did it","category_code":"web","number_of_employees":7,"founded_year":2008}
{"city":"Pelham","country_code":"USA","latitude":40.904885,"longitude":-73.801901,"name":"CalendarFly","category_code":"web","number_of_employees":2,"founded_year":2008}
{"city":"Porter Ranch","country_code":"USA","latitude":34.2748055,"longitude":-118.5560776,"name":"Corkin","category_code":"ecommerce","number_of_employees":2,"founded_year":2008}
{"city":"Cambridge","country_code":"USA","latitude":42.388621,"longitude":-71.132583,"name":"JotNot","category_code":"mobile","number_of_employees":3,"founded_year":2008}
{"city":"Toronto","country_code":"CAN","latitude":43.6491109,"longitude":-79.3780255,"name":"TalentEgg","category_code":"web","number_of_employees":3,"founded_year":2008}
{"city":"Montreal","country_code":"CAN","latitude":45.4928591,"longitude":-73.5825418,"name":"Twtapps","category_code":"web","number_of_employees":1,"founded_year":2009}
{"city":"London","country_code":"GBR","latitude":51.5359008,"longitude":-0.2055081,"name":"Filmed Media","category_code":"games_video","number_of_employees":10,"founded_year":2008}
{"city":"Los Angeles","country_code":"USA","latitude":34.049246,"longitude":-118.395346,"name":"Trustworthy","category_code":"web","number_of_employees":5,"founded_year":2008}
{"city":"Westford","country_code":"USA","latitude":42.610112,"longitude":-71.442225,"name":"iShopWiser","category_code":"ecommerce","number_of_employees":2,"founded_year":2009}
{"city":"Warminster","country_code":"USA","latitude":40.197932,"longitude":-75.099101,"name":"eShark Network","category_code":"software","number_of_employees":2,"founded_year":2008}
{"city":"San Antonio","country_code":"USA","latitude":29.414897,"longitude":-98.48972,"name":"Blellow","category_code":"web","number_of_employees":5,"founded_year":2008}
{"city":"Atlanta","country_code":"USA","latitude":33.754487,"longitude":-84.389663,"name":"Feedscrub","category_code":"web","number_of_employees":3,"founded_year":2008}
{"city":"Brunete","country_code":"ESP","latitude":40.4086268,"longitude":-3.9970381,"name":"Social Gaming Platform","category_code":"network_hosting","number_of_employees":3,"founded_year":2008}
{"city":"Barcelona","country_code":"ESP","latitude":41.3806494,"longitude":2.1687187,"name":"Intergrid","category_code":"network_hosting","number_of_employees":5,"founded_year":2008}
{"city":"london","country_code":"GBR","latitude":51.4213618,"longitude":-0.2075938,"name":"sexietv","category_code":"software","number_of_employees":5,"founded_year":2008}
{"city":"Toronto, Ontario","country_code":"CAN","latitude":43.7694794,"longitude":-79.4418205,"name":"Uptimehost","category_code":"network_hosting","number_of_employees":5,"founded_year":2008}
{"city":"Sunnyvale","country_code":"USA","latitude":37.3492097,"longitude":-122.0326019,"name":"OutlookCloud","category_code":"software","number_of_employees":10,"founded_year":2008}
{"city":"Bilthoven","country_code":"NLD","latitude":52.1424695,"longitude":5.2092075,"name":"SAMP2","category_code":"games_video","number_of_employees":10,"founded_year":2008}
{"city":"San Mateo","country_code":"USA","latitude":37.560236,"longitude":-122.286752,"name":"Fund Mojo","category_code":"web","number_of_employees":2,"founded_year":2008}
{"city":"Kirkland","country_code":"USA","latitude":47.6667342,"longitude":-122.1958685,"name":"Sabi","category_code":"games_video","number_of_employees":5,"founded_year":2008}
{"city":"Arlington","country_code":"USA","latitude":32.6826815,"longitude":-97.1955592,"name":"Sixteen Ventures","category_code":"consulting","number_of_employees":3,"founded_year":2008}
{"city":"Washington","country_code":"USA","latitude":38.9169394,"longitude":-77.0852258,"name":"GrouperEye","category_code":"web","number_of_employees":3,"founded_year":2009}
{"city":"White Horse Beach","country_code":"USA","latitude":41.8798535,"longitude":-70.600416,"name":"Jumper Networks","category_code":"software","number_of_employees":20,"founded_year":2008}
{"city":"Brussels","country_code":"BEL","latitude":50.837051,"longitude":4.367612,"name":"Skilto","category_code":"ecommerce","number_of_employees":2,"founded_year":2009}
{"city":"Cranford","country_code":"USA","latitude":40.6569929,"longitude":-74.3059546,"name":"Dog Files","category_code":"games_video","number_of_employees":3,"founded_year":2008}
{"city":"Chicago","country_code":"USA","latitude":41.885408,"longitude":-87.625677,"name":"midVentures","category_code":"web","number_of_employees":10,"founded_year":2008}
{"city":"Pacifica","country_code":"USA","latitude":37.4561297,"longitude":-122.1235054,"name":"trekaroo","category_code":"web","number_of_employees":4,"founded_year":2008}
{"city":"Lisboa","country_code":"PRT","latitude":38.7509471,"longitude":-9.1427493,"name":"Enough Pepper","category_code":"web","number_of_employees":4,"founded_year":2008}
{"city":"Munich","country_code":"DEU","latitude":48.1210729,"longitude":11.5853709,"name":"Digital Bloom","category_code":"ecommerce","number_of_employees":5,"founded_year":2008}
{"city":"New York","country_code":"USA","latitude":40.718177,"longitude":-74.004602,"name":"Digital Bloom","category_code":"ecommerce","number_of_employees":5,"founded_year":2008}
{"city":"Macomb","country_code":"USA","latitude":42.6547932,"longitude":-82.9178838,"name":"DooShare","category_code":"web","number_of_employees":1,"founded_year":2008}
{"city":"Washington, D.C.","country_code":"USA","latitude":38.905242,"longitude":-77.050052,"name":"Leximo","category_code":"web","number_of_employees":2,"founded_year":2008}
{"city":"Boston","country_code":"USA","latitude":42.3552011,"longitude":-71.0542339,"name":"Pistachio Consulting","category_code":"consulting","number_of_employees":1,"founded_year":2008}
{"city":"San Francisco","country_code":"USA","latitude":37.788796,"longitude":-122.40971,"name":"KODA","category_code":"web","number_of_employees":15,"founded_year":2008}
{"city":"New Orleans","country_code":"USA","latitude":29.9739941,"longitude":-90.0822015,"name":"KODA","category_code":"web","number_of_employees":15,"founded_year":2008}
{"city":"Van Nuys","country_code":"USA","latitude":34.213925,"longitude":-118.487236,"name":"Audiolife","category_code":"ecommerce","number_of_employees":11,"founded_year":2008}
{"city":"New York","country_code":"USA","latitude":40.7464969,"longitude":-74.0094471,"name":"Jobulous","category_code":"web","number_of_employees":6,"founded_year":2008}
{"city":"Boston","country_code":"USA","latitude":42.35892,"longitude":-71.05781,"name":"Jobulous","category_code":"web","number_of_employees":6,"founded_year":2008}
{"city":"","country_code":"USA","latitude":37.4145294,"longitude":-122.1425934,"name":"HotPrints","category_code":"network_hosting","number_of_employees":7,"founded_year":2008}
{"city":"Richmond","country_code":"USA","latitude":37.5353256,"longitude":-77.4338163,"name":"Collexpo","category_code":"ecommerce","number_of_employees":4,"founded_year":2008}
{"city":"V\u00c3\u00a4nersborg","country_code":"SWE","latitude":58.3832154,"longitude":12.3253048,"name":"Fredlund Media","category_code":"consulting","number_of_employees":1,"founded_year":2008}
{"city":"Toronto","country_code":"CAN","latitude":43.670233,"longitude":-79.386755,"name":"Wisevid","category_code":"games_video","number_of_employees":10,"founded_year":2008}
{"city":"Holland","country_code":"USA","latitude":42.7904907,"longitude":-86.0667227,"name":"Zammr","category_code":"network_hosting","number_of_employees":1,"founded_year":2009}
{"city":"London","country_code":"GBR","latitude":51.5196135,"longitude":-0.1020265,"name":"Shutl","category_code":"ecommerce","number_of_employees":10,"founded_year":2009}
{"city":"Madrid","country_code":"ESP","latitude":40.6070897,"longitude":-3.6912754,"name":"Zankyou","category_code":"web","number_of_employees":15,"founded_year":2008}
{"city":"Levallois Perret","country_code":"FRA","latitude":48.8921396,"longitude":2.2847419,"name":"Zankyou","category_code":"web","number_of_employees":15,"founded_year":2008}
{"city":"Heeze","country_code":"NLD","latitude":51.3673409,"longitude":5.5858466,"name":"Interacto","category_code":"web","number_of_employees":2,"founded_year":2009}
{"city":"Marietta","country_code":"USA","latitude":34.013247,"longitude":-84.495636,"name":"Asurrent","category_code":"web","number_of_employees":3,"founded_year":2009}
{"city":"San Francisco","country_code":"USA","latitude":38.88521,"longitude":-76.998641,"name":"Socialize","category_code":"mobile","number_of_employees":10,"founded_year":2008}
{"city":"Brooktondale","country_code":"USA","latitude":42.362886,"longitude":-76.356869,"name":"Ontology2","category_code":"web","number_of_employees":2,"founded_year":2009}
{"city":"New York City","country_code":"USA","latitude":40.727763,"longitude":-73.976169,"name":"Music For Busy People","category_code":"games_video","number_of_employees":3,"founded_year":2009}
{"city":"Houston","country_code":"USA","latitude":29.745861,"longitude":-95.457796,"name":"TagMyEvent","category_code":"web","number_of_employees":10,"founded_year":2008}
{"city":"Figueres, Girona","country_code":"ESP","latitude":42.2674977,"longitude":2.9608395,"name":"alteregoweb","category_code":"web","number_of_employees":1,"founded_year":2009}
{"city":"Noida","country_code":"IND","latitude":28.5846875,"longitude":77.3159296,"name":"TalentEquity Solutions","category_code":"web","number_of_employees":5,"founded_year":2008}
{"city":"San Jose","country_code":"USA","latitude":37.3218356,"longitude":-121.9478049,"name":"AdventureDrop","category_code":"web","number_of_employees":6,"founded_year":2008}
{"city":"North Vancouver","country_code":"CAN","latitude":49.2792347,"longitude":-123.1172422,"name":"Black Ninja Software","category_code":"software","number_of_employees":4,"founded_year":2008}
{"city":"Flushing","country_code":"USA","latitude":40.7609224,"longitude":-73.8304895,"name":"CollectiveSys","category_code":"web","number_of_employees":1,"founded_year":2008}
{"city":"Chennai","country_code":"IND","latitude":13.0292742,"longitude":80.2481532,"name":"JobsByRef","category_code":"web","number_of_employees":10,"founded_year":2008}
{"city":"London","country_code":"GBR","latitude":51.4918635,"longitude":-0.1886272,"name":"AfterWorkDeals","category_code":"mobile","number_of_employees":1,"founded_year":2008}
